{
    "satara": {
        "name": "Satara",
        "lat": 17.68333,
        "lon": 73.98333,
        "timezone": 5.5
    },
    "yibin": {
        "name": "Yibin",
        "lat": 28.76667,
        "lon": 104.62383,
        "timezone": 8.0
    },
    "szczecin": {
        "name": "Szczecin",
        "lat": 53.42894,
        "lon": 14.55302,
        "timezone": 1.0
    },
    "constanta": {
        "name": "Constanta",
        "lat": 44.18333,
        "lon": 28.65,
        "timezone": 2.0
    },
    "soma": {
        "name": "Soma",
        "lat": 39.18554,
        "lon": 27.60945,
        "timezone": 2.0
    },
    "nampa": {
        "name": "Nampa",
        "lat": 43.54072,
        "lon": -116.56346,
        "timezone": -6.0
    },
    "clacton-on-sea": {
        "name": "Clacton-on-Sea",
        "lat": 51.78967,
        "lon": 1.15597,
        "timezone": 1.0
    },
    "tagiura": {
        "name": "Tagiura",
        "lat": 32.88167,
        "lon": 13.35056,
        "timezone": 2.0
    },
    "atasehir": {
        "name": "Atasehir",
        "lat": 40.9833,
        "lon": 29.1167,
        "timezone": 2.0
    },
    "sanandaj": {
        "name": "Sanandaj",
        "lat": 35.31495,
        "lon": 46.99883,
        "timezone": 3.5
    },
    "livingstone": {
        "name": "Livingstone",
        "lat": -17.84194,
        "lon": 25.85425,
        "timezone": 2.0
    },
    "yelets": {
        "name": "Yelets",
        "lat": 52.62366,
        "lon": 38.50169,
        "timezone": 2.0
    },
    "fulda": {
        "name": "Fulda",
        "lat": 50.55162,
        "lon": 9.67518,
        "timezone": 1.0
    },
    "novi sad": {
        "name": "Novi Sad",
        "lat": 45.25167,
        "lon": 19.83694,
        "timezone": 1.0
    },
    "trencin": {
        "name": "Trencin",
        "lat": 48.89452,
        "lon": 18.04436,
        "timezone": 1.0
    },
    "auchi": {
        "name": "Auchi",
        "lat": 7.06667,
        "lon": 6.26667,
        "timezone": 1.0
    },
    "panshan": {
        "name": "Panshan",
        "lat": 41.18806,
        "lon": 122.04944,
        "timezone": 8.0
    },
    "niamey": {
        "name": "Niamey",
        "lat": 13.51366,
        "lon": 2.1098,
        "timezone": 1.0
    },
    "avadi": {
        "name": "Avadi",
        "lat": 13.11556,
        "lon": 80.10167,
        "timezone": 5.5
    },
    "gravesend": {
        "name": "Gravesend",
        "lat": 51.44138,
        "lon": 0.37371,
        "timezone": 1.0
    },
    "caen": {
        "name": "Caen",
        "lat": 49.18585,
        "lon": -0.35912,
        "timezone": 1.0
    },
    "irun": {
        "name": "Irun",
        "lat": 43.33904,
        "lon": -1.78938,
        "timezone": 1.0
    },
    "honavar": {
        "name": "Honavar",
        "lon": 74.4439,
        "lat": 14.2798,
        "timezone": 5.5
    },
    "kundgol": {
        "name": "Kundgol",
        "lon": 75.33975,
        "lat": 15.2306,
        "timezone": 5.5
    },
    "darmstadt": {
        "name": "Darmstadt",
        "lat": 49.87056,
        "lon": 8.64944,
        "timezone": 1.0
    },
    "as salt": {
        "name": "As Salt",
        "lat": 32.03917,
        "lon": 35.72722,
        "timezone": 2.0
    },
    "hikone": {
        "name": "Hikone",
        "lat": 35.25,
        "lon": 136.25,
        "timezone": 9.0
    },
    "al hindiyah": {
        "name": "Al Hindiyah",
        "lat": 32.54217,
        "lon": 44.22111,
        "timezone": 3.0
    },
    "redding": {
        "name": "Redding",
        "lat": 40.58654,
        "lon": -122.39168,
        "timezone": -7.0
    },
    "anshan": {
        "name": "Anshan",
        "lat": 41.12361,
        "lon": 122.99,
        "timezone": 8.0
    },
    "xalapa de enriquez": {
        "name": "Xalapa de Enriquez",
        "lat": 19.53333,
        "lon": -96.91667,
        "timezone": -6.0
    },
    "douliu": {
        "name": "Douliu",
        "lat": 23.70944,
        "lon": 120.54333,
        "timezone": 8.0
    },
    "sanda": {
        "name": "Sanda",
        "lat": 34.88333,
        "lon": 135.23333,
        "timezone": 9.0
    },
    "przemysl": {
        "name": "Przemysl",
        "lat": 49.78498,
        "lon": 22.76728,
        "timezone": 1.0
    },
    "yamaguchi-shi": {
        "name": "Yamaguchi-shi",
        "lat": 34.18583,
        "lon": 131.47139,
        "timezone": 9.0
    },
    "yuncheng": {
        "name": "Yuncheng",
        "lat": 35.02306,
        "lon": 110.99278,
        "timezone": 8.0
    },
    "shiki": {
        "name": "Shiki",
        "lat": 35.83333,
        "lon": 139.58333,
        "timezone": 9.0
    },
    "oslo": {
        "name": "Oslo",
        "lat": 59.91273,
        "lon": 10.74609,
        "timezone": 1.0
    },
    "caratinga": {
        "name": "Caratinga",
        "lat": -19.78972,
        "lon": -42.13917,
        "timezone": -3.0
    },
    "ogaminan": {
        "name": "Ogaminan",
        "lat": 7.59464,
        "lon": 6.22476,
        "timezone": 1.0
    },
    "el vigia": {
        "name": "El Vigia",
        "lat": 8.61366,
        "lon": -71.65284,
        "timezone": -4.0
    },
    "cotia": {
        "name": "Cotia",
        "lat": -23.60389,
        "lon": -46.91917,
        "timezone": -3.0
    },
    "minyat an nasr": {
        "name": "Minyat an Nasr",
        "lat": 31.12294,
        "lon": 31.6399,
        "timezone": 2.0
    },
    "umred": {
        "name": "Umred",
        "lat": 20.85409,
        "lon": 79.3242,
        "timezone": 5.5
    },
    "ansan": {
        "name": "Ansan",
        "lat": 37.32361,
        "lon": 126.82194,
        "timezone": 9.0
    },
    "kotikawatta": {
        "name": "Kotikawatta",
        "lat": 6.9269,
        "lon": 79.9095,
        "timezone": 5.5
    },
    "suileng": {
        "name": "Suileng",
        "lat": 47.25,
        "lon": 127.08333,
        "timezone": 8.0
    },
    "taroudant": {
        "name": "Taroudant",
        "lat": 30.47028,
        "lon": -8.87695,
        "timezone": 0.0
    },
    "boise": {
        "name": "Boise",
        "lat": 43.6135,
        "lon": -116.20345,
        "timezone": -6.0
    },
    "labinsk": {
        "name": "Labinsk",
        "lat": 44.63417,
        "lon": 40.73556,
        "timezone": 2.0
    },
    "itapecerica da serra": {
        "name": "Itapecerica da Serra",
        "lat": -23.71694,
        "lon": -46.84917,
        "timezone": -3.0
    },
    "shahrisabz": {
        "name": "Shahrisabz",
        "lat": 39.05778,
        "lon": 66.83417,
        "timezone": 5.0
    },
    "hamilton": {
        "name": "Hamilton",
        "lat": 39.3995,
        "lon": -84.56134,
        "timezone": -4.0
    },
    "poltava": {
        "name": "Poltava",
        "lat": 49.59373,
        "lon": 34.54073,
        "timezone": 2.0
    },
    "'s-hertogenbosch": {
        "name": "'s-Hertogenbosch",
        "lat": 51.69917,
        "lon": 5.30417,
        "timezone": 1.0
    },
    "chula vista": {
        "name": "Chula Vista",
        "lat": 32.64005,
        "lon": -117.0842,
        "timezone": -7.0
    },
    "dschang": {
        "name": "Dschang",
        "lat": 5.44559,
        "lon": 10.055,
        "timezone": 1.0
    },
    "eindhoven": {
        "name": "Eindhoven",
        "lat": 51.44083,
        "lon": 5.47778,
        "timezone": 1.0
    },
    "mbanza-ngungu": {
        "name": "Mbanza-Ngungu",
        "lat": -5.25837,
        "lon": 14.85838,
        "timezone": 1.0
    },
    "kitakyushu": {
        "name": "Kitakyushu",
        "lat": 33.83333,
        "lon": 130.83333,
        "timezone": 9.0
    },
    "liverpool": {
        "name": "Liverpool",
        "lat": 53.41058,
        "lon": -2.97794,
        "timezone": 1.0
    },
    "tadmur": {
        "name": "Tadmur",
        "lat": 34.56077,
        "lon": 38.28055,
        "timezone": 2.0
    },
    "dolisie": {
        "name": "Dolisie",
        "lat": -4.19834,
        "lon": 12.66664,
        "timezone": 1.0
    },
    "yuki": {
        "name": "Yuki",
        "lat": 36.3,
        "lon": 139.88333,
        "timezone": 9.0
    },
    "wolverhampton": {
        "name": "Wolverhampton",
        "lat": 52.58547,
        "lon": -2.12296,
        "timezone": 1.0
    },
    "blagoveshchensk": {
        "name": "Blagoveshchensk",
        "lat": 50.27817,
        "lon": 127.54074,
        "timezone": 8.0
    },
    "yuanjiang": {
        "name": "Yuanjiang",
        "lat": 28.84298,
        "lon": 112.35217,
        "timezone": 8.0
    },
    "los dos caminos": {
        "name": "Los Dos Caminos",
        "lat": 10.49389,
        "lon": -66.82863,
        "timezone": -4.0
    },
    "hamah": {
        "name": "Hamah",
        "lat": 35.13179,
        "lon": 36.75783,
        "timezone": 2.0
    },
    "khardah": {
        "name": "Khardah",
        "lat": 22.71861,
        "lon": 88.37806,
        "timezone": 5.5
    },
    "khenifra": {
        "name": "Khenifra",
        "lat": 32.9391,
        "lon": -5.6686,
        "timezone": 0.0
    },
    "okaya": {
        "name": "Okaya",
        "lat": 36.05659,
        "lon": 138.0451,
        "timezone": 9.0
    },
    "quincy": {
        "name": "Quincy",
        "lat": 42.25288,
        "lon": -71.00227,
        "timezone": -4.0
    },
    "zoucheng": {
        "name": "Zoucheng",
        "lat": 35.40056,
        "lon": 116.96556,
        "timezone": 8.0
    },
    "cannock": {
        "name": "Cannock",
        "lat": 52.69045,
        "lon": -2.03085,
        "timezone": 1.0
    },
    "ganja": {
        "name": "Ganja",
        "lat": 40.68278,
        "lon": 46.36056,
        "timezone": 3.0
    },
    "ambala": {
        "name": "Ambala",
        "lat": 30.36284,
        "lon": 76.79516,
        "timezone": 5.5
    },
    "huangchuan": {
        "name": "Huangchuan",
        "lat": 32.12722,
        "lon": 115.03944,
        "timezone": 8.0
    },
    "messina": {
        "name": "Messina",
        "lat": 38.19327,
        "lon": 15.54969,
        "timezone": 1.0
    },
    "laiyang": {
        "name": "Laiyang",
        "lat": 36.97583,
        "lon": 120.71361,
        "timezone": 8.0
    },
    "sao jose dos pinhais": {
        "name": "Sao Jose dos Pinhais",
        "lat": -25.53472,
        "lon": -49.20639,
        "timezone": -3.0
    },
    "dayr al balah": {
        "name": "Dayr al Balah",
        "lat": 31.41783,
        "lon": 34.35033,
        "timezone": 2.0
    },
    "brighton": {
        "name": "Brighton",
        "lat": 50.82838,
        "lon": -0.13947,
        "timezone": 1.0
    },
    "puerto barrios": {
        "name": "Puerto Barrios",
        "lat": 15.72778,
        "lon": -88.59444,
        "timezone": -6.0
    },
    "hsinchu": {
        "name": "Hsinchu",
        "lat": 24.80361,
        "lon": 120.96861,
        "timezone": 8.0
    },
    "san miguel del padron": {
        "name": "San Miguel del Padron",
        "lat": 23.06639,
        "lon": -82.29472,
        "timezone": -4.0
    },
    "upland": {
        "name": "Upland",
        "lat": 34.09751,
        "lon": -117.64839,
        "timezone": -7.0
    },
    "onomichi": {
        "name": "Onomichi",
        "lat": 34.41667,
        "lon": 133.2,
        "timezone": 9.0
    },
    "cheltenham": {
        "name": "Cheltenham",
        "lat": 51.9,
        "lon": -2.08333,
        "timezone": 1.0
    },
    "saint cloud": {
        "name": "Saint Cloud",
        "lat": 45.5608,
        "lon": -94.16249,
        "timezone": -5.0
    },
    "budapest xxii. keruelet": {
        "name": "Budapest XXII. keruelet",
        "lat": 47.42698,
        "lon": 19.04016,
        "timezone": 1.0
    },
    "oruro": {
        "name": "Oruro",
        "lat": -17.98333,
        "lon": -67.15,
        "timezone": -4.0
    },
    "battersea": {
        "name": "Battersea",
        "lat": 51.47475,
        "lon": -0.15547,
        "timezone": 1.0
    },
    "huaiyuan chengguanzhen": {
        "name": "Huaiyuan Chengguanzhen",
        "lat": 32.95893,
        "lon": 117.16566,
        "timezone": 8.0
    },
    "martapura": {
        "name": "Martapura",
        "lat": -3.41667,
        "lon": 114.85,
        "timezone": 8.0
    },
    "awka": {
        "name": "Awka",
        "lat": 6.21009,
        "lon": 7.07411,
        "timezone": 1.0
    },
    "ciranjang-hilir": {
        "name": "Ciranjang-hilir",
        "lat": -6.82,
        "lon": 107.25722,
        "timezone": 7.0
    },
    "zoetermeer": {
        "name": "Zoetermeer",
        "lat": 52.0575,
        "lon": 4.49306,
        "timezone": 1.0
    },
    "czestochowa": {
        "name": "Czestochowa",
        "lat": 50.79646,
        "lon": 19.12409,
        "timezone": 1.0
    },
    "hede": {
        "name": "Hede",
        "lat": 33.76806,
        "lon": 120.25167,
        "timezone": 8.0
    },
    "udaipur": {
        "name": "Udaipur",
        "lat": 24.57117,
        "lon": 73.69183,
        "timezone": 5.5
    },
    "matsumoto": {
        "name": "Matsumoto",
        "lat": 36.23333,
        "lon": 137.96667,
        "timezone": 9.0
    },
    "jaranwala": {
        "name": "Jaranwala",
        "lat": 31.33333,
        "lon": 73.43333,
        "timezone": 5.0
    },
    "sherman oaks": {
        "name": "Sherman Oaks",
        "lat": 34.15112,
        "lon": -118.44925,
        "timezone": -7.0
    },
    "santiago de los caballeros": {
        "name": "Santiago de los Caballeros",
        "lat": 19.45,
        "lon": -70.7,
        "timezone": -4.0
    },
    "vol'sk": {
        "name": "Vol'sk",
        "lat": 52.04541,
        "lon": 47.37993,
        "timezone": 4.0
    },
    "kafr az zayyat": {
        "name": "Kafr az Zayyat",
        "lat": 30.8248,
        "lon": 30.81805,
        "timezone": 2.0
    },
    "kampung baru subang": {
        "name": "Kampung Baru Subang",
        "lat": 3.15,
        "lon": 101.53333,
        "timezone": 8.0
    },
    "hadano": {
        "name": "Hadano",
        "lat": 35.37111,
        "lon": 139.22361,
        "timezone": 9.0
    },
    "kukatpalli": {
        "name": "Kukatpalli",
        "lat": 17.48333,
        "lon": 78.41667,
        "timezone": 5.5
    },
    "nagaoka": {
        "name": "Nagaoka",
        "lat": 37.45,
        "lon": 138.85,
        "timezone": 9.0
    },
    "bueyuekcekmece": {
        "name": "Bueyuekcekmece",
        "lat": 41.02072,
        "lon": 28.58502,
        "timezone": 2.0
    },
    "mucumpiz": {
        "name": "Mucumpiz",
        "lat": 8.41667,
        "lon": -71.13333,
        "timezone": -4.0
    },
    "okayama-shi": {
        "name": "Okayama-shi",
        "lat": 34.66167,
        "lon": 133.935,
        "timezone": 9.0
    },
    "cuernavaca": {
        "name": "Cuernavaca",
        "lat": 18.94201,
        "lon": -99.22646,
        "timezone": -6.0
    },
    "dongyang": {
        "name": "Dongyang",
        "lat": 29.26778,
        "lon": 120.22528,
        "timezone": 8.0
    },
    "giugliano in campania": {
        "name": "Giugliano in Campania",
        "lat": 40.92741,
        "lon": 14.19103,
        "timezone": 1.0
    },
    "saratov": {
        "name": "Saratov",
        "lat": 51.54056,
        "lon": 46.00861,
        "timezone": 4.0
    },
    "shushtar": {
        "name": "Shushtar",
        "lat": 32.0455,
        "lon": 48.8567,
        "timezone": 3.5
    },
    "koshigaya": {
        "name": "Koshigaya",
        "lat": 35.88333,
        "lon": 139.78333,
        "timezone": 9.0
    },
    "jinan": {
        "name": "Jinan",
        "lat": 36.66833,
        "lon": 116.99722,
        "timezone": 8.0
    },
    "nizhniy novgorod": {
        "name": "Nizhniy Novgorod",
        "lat": 56.32867,
        "lon": 44.00205,
        "timezone": 2.0
    },
    "santa cruz de la sierra": {
        "name": "Santa Cruz de la Sierra",
        "lat": -17.8,
        "lon": -63.16667,
        "timezone": -4.0
    },
    "lauro de freitas": {
        "name": "Lauro de Freitas",
        "lat": -12.89444,
        "lon": -38.32722,
        "timezone": -3.0
    },
    "kobe-shi": {
        "name": "Kobe-shi",
        "lat": 34.6913,
        "lon": 135.183,
        "timezone": 9.0
    },
    "itatiba": {
        "name": "Itatiba",
        "lat": -23.00583,
        "lon": -46.83889,
        "timezone": -3.0
    },
    "monterrey": {
        "name": "Monterrey",
        "lat": 25.66667,
        "lon": -100.31667,
        "timezone": -6.0
    },
    "ardabil": {
        "name": "Ardabil",
        "lat": 38.2498,
        "lon": 48.2933,
        "timezone": 3.5
    },
    "ardesen": {
        "name": "Ardesen",
        "lat": 41.19111,
        "lon": 40.9875,
        "timezone": 2.0
    },
    "huangnihe": {
        "name": "Huangnihe",
        "lat": 43.55833,
        "lon": 128.02389,
        "timezone": 8.0
    },
    "ituiutaba": {
        "name": "Ituiutaba",
        "lat": -18.96889,
        "lon": -49.465,
        "timezone": -3.0
    },
    "perth amboy": {
        "name": "Perth Amboy",
        "lat": 40.50677,
        "lon": -74.26542,
        "timezone": -4.0
    },
    "badajoz": {
        "name": "Badajoz",
        "lat": 38.87789,
        "lon": -6.97061,
        "timezone": 1.0
    },
    "nazareth": {
        "name": "Nazareth",
        "lat": 32.69925,
        "lon": 35.30483,
        "timezone": 2.0
    },
    "smolensk": {
        "name": "Smolensk",
        "lat": 54.7818,
        "lon": 32.0401,
        "timezone": 2.0
    },
    "botosani": {
        "name": "Botosani",
        "lat": 47.75,
        "lon": 26.66667,
        "timezone": 2.0
    },
    "halle (saale)": {
        "name": "Halle (Saale)",
        "lat": 51.5,
        "lon": 12.0,
        "timezone": 1.0
    },
    "jizan": {
        "name": "Jizan",
        "lat": 16.88917,
        "lon": 42.55111,
        "timezone": 3.0
    },
    "kristiansand": {
        "name": "Kristiansand",
        "lat": 58.14671,
        "lon": 7.9956,
        "timezone": 1.0
    },
    "staten island": {
        "name": "Staten Island",
        "lat": 40.56233,
        "lon": -74.13986,
        "timezone": -4.0
    },
    "bangangte": {
        "name": "Bangangte",
        "lat": 5.14091,
        "lon": 10.51975,
        "timezone": 1.0
    },
    "mujiayingzi": {
        "name": "Mujiayingzi",
        "lat": 42.11667,
        "lon": 118.78333,
        "timezone": 8.0
    },
    "malabo": {
        "name": "Malabo",
        "lat": 3.75,
        "lon": 8.78333,
        "timezone": 1.0
    },
    "barnala": {
        "name": "Barnala",
        "lat": 30.37205,
        "lon": 75.54537,
        "timezone": 5.5
    },
    "natal": {
        "name": "Natal",
        "lat": -5.795,
        "lon": -35.20944,
        "timezone": -3.0
    },
    "venissieux": {
        "name": "Venissieux",
        "lat": 45.70254,
        "lon": 4.87147,
        "timezone": 1.0
    },
    "rochester hills": {
        "name": "Rochester Hills",
        "lat": 42.65837,
        "lon": -83.14993,
        "timezone": -4.0
    },
    "pessac": {
        "name": "Pessac",
        "lat": 44.81011,
        "lon": -0.64129,
        "timezone": 1.0
    },
    "bojnurd": {
        "name": "Bojnurd",
        "lat": 37.47473,
        "lon": 57.32903,
        "timezone": 3.5
    },
    "khost": {
        "name": "Khost",
        "lat": 33.33951,
        "lon": 69.92041,
        "timezone": 4.5
    },
    "jalingo": {
        "name": "Jalingo",
        "lat": 8.88333,
        "lon": 11.36667,
        "timezone": 1.0
    },
    "vallejo": {
        "name": "Vallejo",
        "lat": 38.10409,
        "lon": -122.25664,
        "timezone": -7.0
    },
    "san severo": {
        "name": "San Severo",
        "lat": 41.68974,
        "lon": 15.37604,
        "timezone": 1.0
    },
    "seto": {
        "name": "Seto",
        "lat": 35.23333,
        "lon": 137.1,
        "timezone": 9.0
    },
    "onojo": {
        "name": "Onojo",
        "lat": 33.53567,
        "lon": 130.47861,
        "timezone": 9.0
    },
    "boryspil'": {
        "name": "Boryspil'",
        "lat": 50.35269,
        "lon": 30.95501,
        "timezone": 2.0
    },
    "sabratah": {
        "name": "Sabratah",
        "lat": 32.79335,
        "lon": 12.48845,
        "timezone": 2.0
    },
    "fresnillo de gonzalez echeverria": {
        "name": "Fresnillo de Gonzalez Echeverria",
        "lat": 23.17569,
        "lon": -102.86942,
        "timezone": -6.0
    },
    "taganrog": {
        "name": "Taganrog",
        "lat": 47.23617,
        "lon": 38.89688,
        "timezone": 2.0
    },
    "jaboticabal": {
        "name": "Jaboticabal",
        "lat": -21.25472,
        "lon": -48.32222,
        "timezone": -3.0
    },
    "soyapango": {
        "name": "Soyapango",
        "lat": 13.73472,
        "lon": -89.15139,
        "timezone": -6.0
    },
    "shahdadkot": {
        "name": "Shahdadkot",
        "lat": 27.84771,
        "lon": 67.9055,
        "timezone": 5.0
    },
    "fort worth": {
        "name": "Fort Worth",
        "lat": 32.72541,
        "lon": -97.32085,
        "timezone": -5.0
    },
    "waukesha": {
        "name": "Waukesha",
        "lat": 43.01168,
        "lon": -88.23148,
        "timezone": -5.0
    },
    "langfang": {
        "name": "Langfang",
        "lat": 39.50972,
        "lon": 116.69472,
        "timezone": 8.0
    },
    "alcorcon": {
        "name": "Alcorcon",
        "lat": 40.34582,
        "lon": -3.82487,
        "timezone": 1.0
    },
    "kedzierzyn-kozle": {
        "name": "Kedzierzyn-Kozle",
        "lat": 50.34984,
        "lon": 18.22606,
        "timezone": 1.0
    },
    "dortmund": {
        "name": "Dortmund",
        "lat": 51.51494,
        "lon": 7.466,
        "timezone": 1.0
    },
    "lhokseumawe": {
        "name": "Lhokseumawe",
        "lat": 5.1801,
        "lon": 97.1507,
        "timezone": 7.0
    },
    "vina del mar": {
        "name": "Vina del Mar",
        "lat": -33.02457,
        "lon": -71.55183,
        "timezone": -4.0
    },
    "manhuacu": {
        "name": "Manhuacu",
        "lat": -20.25806,
        "lon": -42.03361,
        "timezone": -3.0
    },
    "cizre": {
        "name": "Cizre",
        "lat": 37.32722,
        "lon": 42.19028,
        "timezone": 2.0
    },
    "hollywood": {
        "name": "Hollywood",
        "lat": 34.09834,
        "lon": -118.32674,
        "timezone": -7.0
    },
    "pazardzhik": {
        "name": "Pazardzhik",
        "lat": 42.2,
        "lon": 24.33333,
        "timezone": 2.0
    },
    "baoding": {
        "name": "Baoding",
        "lat": 38.85111,
        "lon": 115.49028,
        "timezone": 8.0
    },
    "habana del este": {
        "name": "Habana del Este",
        "lat": 23.15917,
        "lon": -82.33056,
        "timezone": -4.0
    },
    "gagnoa": {
        "name": "Gagnoa",
        "lat": 6.13193,
        "lon": -5.9506,
        "timezone": 0.0
    },
    "punasa": {
        "name": "Punasa",
        "lat": 22.23544,
        "lon": 76.39295,
        "timezone": 5.5
    },
    "shiliguri": {
        "name": "Shiliguri",
        "lat": 26.71004,
        "lon": 88.42851,
        "timezone": 5.5
    },
    "astana": {
        "name": "Astana",
        "lat": 51.1801,
        "lon": 71.44598,
        "timezone": 5.0
    },
    "tenan": {
        "name": "Tenan",
        "lat": 36.8065,
        "lon": 127.1522,
        "timezone": 9.0
    },
    "la dolorita": {
        "name": "La Dolorita",
        "lat": 10.4883,
        "lon": -66.78608,
        "timezone": -4.0
    },
    "guidonia": {
        "name": "Guidonia",
        "lat": 42.01667,
        "lon": 12.75,
        "timezone": 1.0
    },
    "afragola": {
        "name": "Afragola",
        "lat": 40.92601,
        "lon": 14.31083,
        "timezone": 1.0
    },
    "frisco": {
        "name": "Frisco",
        "lat": 33.15067,
        "lon": -96.82361,
        "timezone": -5.0
    },
    "shivaji nagar": {
        "name": "Shivaji Nagar",
        "lat": 18.53017,
        "lon": 73.85263,
        "timezone": 5.5
    },
    "ezhva": {
        "name": "Ezhva",
        "lat": 61.81281,
        "lon": 50.72834,
        "timezone": 2.0
    },
    "den haag": {
        "name": "Den Haag",
        "lat": 52.07667,
        "lon": 4.29861,
        "timezone": 1.0
    },
    "vinh": {
        "name": "Vinh",
        "lat": 18.66667,
        "lon": 105.66667,
        "timezone": 7.0
    },
    "ha long": {
        "name": "Ha Long",
        "lat": 20.95111,
        "lon": 107.08,
        "timezone": 7.0
    },
    "nigel": {
        "name": "Nigel",
        "lat": -26.43138,
        "lon": 28.47713,
        "timezone": 2.0
    },
    "delray beach": {
        "name": "Delray Beach",
        "lat": 26.46146,
        "lon": -80.07282,
        "timezone": -4.0
    },
    "chas": {
        "name": "Chas",
        "lat": 23.63556,
        "lon": 86.16712,
        "timezone": 5.5
    },
    "taungdwingyi": {
        "name": "Taungdwingyi",
        "lat": 20.0065,
        "lon": 95.54531,
        "timezone": 6.5
    },
    "tadpatri": {
        "name": "Tadpatri",
        "lat": 14.91667,
        "lon": 78.01667,
        "timezone": 5.5
    },
    "arlington heights": {
        "name": "Arlington Heights",
        "lat": 42.08836,
        "lon": -87.98063,
        "timezone": -5.0
    },
    "tulancingo": {
        "name": "Tulancingo",
        "lat": 20.08363,
        "lon": -98.36332,
        "timezone": -6.0
    },
    "chihuahua": {
        "name": "Chihuahua",
        "lat": 28.63333,
        "lon": -106.08333,
        "timezone": -6.0
    },
    "sa dec": {
        "name": "Sa Dec",
        "lat": 10.3,
        "lon": 105.76667,
        "timezone": 7.0
    },
    "xiongzhou": {
        "name": "Xiongzhou",
        "lat": 25.11667,
        "lon": 114.3,
        "timezone": 8.0
    },
    "berlin spandau": {
        "name": "Berlin Spandau",
        "lat": 52.5511,
        "lon": 13.19921,
        "timezone": 1.0
    },
    "talca": {
        "name": "Talca",
        "lat": -35.4264,
        "lon": -71.65542,
        "timezone": -4.0
    },
    "waterford": {
        "name": "Waterford",
        "lat": 42.70225,
        "lon": -83.40272,
        "timezone": -4.0
    },
    "reston": {
        "name": "Reston",
        "lat": 38.96872,
        "lon": -77.3411,
        "timezone": -4.0
    },
    "man": {
        "name": "Man",
        "lat": 7.41251,
        "lon": -7.55383,
        "timezone": 0.0
    },
    "jiaozhou": {
        "name": "Jiaozhou",
        "lat": 36.28389,
        "lon": 120.00333,
        "timezone": 8.0
    },
    "arzamas": {
        "name": "Arzamas",
        "lat": 55.39485,
        "lon": 43.83992,
        "timezone": 2.0
    },
    "iriga city": {
        "name": "Iriga City",
        "lat": 13.4324,
        "lon": 123.4115,
        "timezone": 8.0
    },
    "catalao": {
        "name": "Catalao",
        "lat": -18.16583,
        "lon": -47.94639,
        "timezone": -3.0
    },
    "ningyang": {
        "name": "Ningyang",
        "lat": 35.76417,
        "lon": 116.79139,
        "timezone": 8.0
    },
    "quetta": {
        "name": "Quetta",
        "lat": 30.199,
        "lon": 67.00971,
        "timezone": 5.0
    },
    "deolali": {
        "name": "Deolali",
        "lat": 19.95,
        "lon": 73.83333,
        "timezone": 5.5
    },
    "braganca": {
        "name": "Braganca",
        "lat": -1.05361,
        "lon": -46.76556,
        "timezone": -3.0
    },
    "braunschweig": {
        "name": "Braunschweig",
        "lat": 52.26594,
        "lon": 10.52673,
        "timezone": 1.0
    },
    "yishui": {
        "name": "Yishui",
        "lat": 35.78472,
        "lon": 118.62806,
        "timezone": 8.0
    },
    "wuchang": {
        "name": "Wuchang",
        "lat": 44.91428,
        "lon": 127.15001,
        "timezone": 8.0
    },
    "jaboatao": {
        "name": "Jaboatao",
        "lat": -8.18028,
        "lon": -35.00139,
        "timezone": -3.0
    },
    "agadir": {
        "name": "Agadir",
        "lat": 30.42018,
        "lon": -9.59815,
        "timezone": 0.0
    },
    "ifo": {
        "name": "Ifo",
        "lat": 6.81437,
        "lon": 3.19575,
        "timezone": 1.0
    },
    "codo": {
        "name": "Codo",
        "lat": -4.45528,
        "lon": -43.88556,
        "timezone": -3.0
    },
    "meknes": {
        "name": "Meknes",
        "lat": 33.89352,
        "lon": -5.54727,
        "timezone": 0.0
    },
    "sirhind": {
        "name": "Sirhind",
        "lat": 30.64332,
        "lon": 76.38489,
        "timezone": 5.5
    },
    "volgograd": {
        "name": "Volgograd",
        "lat": 48.71939,
        "lon": 44.50184,
        "timezone": 4.0
    },
    "marzahn bezirk": {
        "name": "Marzahn Bezirk",
        "lat": 52.55,
        "lon": 13.55,
        "timezone": 1.0
    },
    "spring valley": {
        "name": "Spring Valley",
        "lat": 36.10803,
        "lon": -115.245,
        "timezone": -7.0
    },
    "bender": {
        "name": "Bender",
        "lat": 46.83056,
        "lon": 29.47111,
        "timezone": 2.0
    },
    "chicago": {
        "name": "Chicago",
        "lat": 41.85003,
        "lon": -87.65005,
        "timezone": -5.0
    },
    "san salvador": {
        "name": "San Salvador",
        "lat": 13.68935,
        "lon": -89.18718,
        "timezone": -6.0
    },
    "teresopolis": {
        "name": "Teresopolis",
        "lat": -22.41222,
        "lon": -42.96556,
        "timezone": -3.0
    },
    "araraquara": {
        "name": "Araraquara",
        "lat": -21.79444,
        "lon": -48.17556,
        "timezone": -3.0
    },
    "saint petersburg": {
        "name": "Saint Petersburg",
        "lat": 27.77086,
        "lon": -82.67927,
        "timezone": -4.0
    },
    "soubre": {
        "name": "Soubre",
        "lat": 5.78556,
        "lon": -6.60833,
        "timezone": 0.0
    },
    "mwene-ditu": {
        "name": "Mwene-Ditu",
        "lat": -7.0,
        "lon": 23.45,
        "timezone": 2.0
    },
    "pamanukan": {
        "name": "Pamanukan",
        "lat": -6.28417,
        "lon": 107.81056,
        "timezone": 7.0
    },
    "imari": {
        "name": "Imari",
        "lat": 33.26667,
        "lon": 129.88333,
        "timezone": 9.0
    },
    "uwajima": {
        "name": "Uwajima",
        "lat": 33.22375,
        "lon": 132.56001,
        "timezone": 9.0
    },
    "abu ghurayb": {
        "name": "Abu Ghurayb",
        "lat": 33.30703,
        "lon": 44.18694,
        "timezone": 3.0
    },
    "ciudad victoria": {
        "name": "Ciudad Victoria",
        "lat": 23.73333,
        "lon": -99.13333,
        "timezone": -6.0
    },
    "ixtapaluca": {
        "name": "Ixtapaluca",
        "lat": 19.31905,
        "lon": -98.88432,
        "timezone": -6.0
    },
    "bani": {
        "name": "Bani",
        "lat": 18.28333,
        "lon": -70.33333,
        "timezone": -4.0
    },
    "turmero": {
        "name": "Turmero",
        "lat": 10.22388,
        "lon": -67.47288,
        "timezone": -4.0
    },
    "lynn": {
        "name": "Lynn",
        "lat": 42.46676,
        "lon": -70.94949,
        "timezone": -4.0
    },
    "tarragona": {
        "name": "Tarragona",
        "lat": 41.11667,
        "lon": 1.25,
        "timezone": 1.0
    },
    "bet shemesh": {
        "name": "Bet Shemesh",
        "lat": 31.74959,
        "lon": 34.98877,
        "timezone": 2.0
    },
    "jersey city": {
        "name": "Jersey City",
        "lat": 40.72816,
        "lon": -74.07764,
        "timezone": -4.0
    },
    "wuxue": {
        "name": "Wuxue",
        "lat": 29.85058,
        "lon": 115.5525,
        "timezone": 8.0
    },
    "azamgarh": {
        "name": "Azamgarh",
        "lat": 26.06758,
        "lon": 83.18364,
        "timezone": 5.5
    },
    "narwana": {
        "name": "Narwana",
        "lat": 29.59489,
        "lon": 76.11816,
        "timezone": 5.5
    },
    "francisco morato": {
        "name": "Francisco Morato",
        "lat": -23.28167,
        "lon": -46.74528,
        "timezone": -3.0
    },
    "barretos": {
        "name": "Barretos",
        "lat": -20.55722,
        "lon": -48.56778,
        "timezone": -3.0
    },
    "shaoxing": {
        "name": "Shaoxing",
        "lat": 30.01102,
        "lon": 120.57153,
        "timezone": 8.0
    },
    "saint george": {
        "name": "Saint George",
        "lat": 37.10415,
        "lon": -113.58412,
        "timezone": -6.0
    },
    "kingston": {
        "name": "Kingston",
        "lat": 17.99702,
        "lon": -76.79358,
        "timezone": -5.0
    },
    "fareham": {
        "name": "Fareham",
        "lat": 50.85162,
        "lon": -1.17929,
        "timezone": 1.0
    },
    "bharatpur": {
        "name": "Bharatpur",
        "lat": 27.68333,
        "lon": 84.43333,
        "timezone": 5.75
    },
    "paradip garh": {
        "name": "Paradip Garh",
        "lat": 20.31641,
        "lon": 86.6085,
        "timezone": 5.5
    },
    "universal city": {
        "name": "Universal City",
        "lat": 34.1389,
        "lon": -118.35341,
        "timezone": -7.0
    },
    "encinitas": {
        "name": "Encinitas",
        "lat": 33.03699,
        "lon": -117.29198,
        "timezone": -7.0
    },
    "lisbon": {
        "name": "Lisbon",
        "lat": 38.71667,
        "lon": -9.13333,
        "timezone": 0.0
    },
    "latur": {
        "name": "Latur",
        "lat": 18.4,
        "lon": 76.58333,
        "timezone": 5.5
    },
    "zanzibar": {
        "name": "Zanzibar",
        "lat": -6.16394,
        "lon": 39.19793,
        "timezone": 3.0
    },
    "shangzhi": {
        "name": "Shangzhi",
        "lat": 45.21667,
        "lon": 127.96667,
        "timezone": 8.0
    },
    "union": {
        "name": "Union",
        "lat": 40.6976,
        "lon": -74.2632,
        "timezone": -4.0
    },
    "nyiregyhaza": {
        "name": "Nyiregyhaza",
        "lat": 47.95539,
        "lon": 21.71671,
        "timezone": 1.0
    },
    "tuymazy": {
        "name": "Tuymazy",
        "lat": 54.60666,
        "lon": 53.7097,
        "timezone": 4.0
    },
    "sandwip": {
        "name": "Sandwip",
        "lat": 22.51409,
        "lon": 91.45491,
        "timezone": 6.0
    },
    "paradise": {
        "name": "Paradise",
        "lat": 36.09719,
        "lon": -115.14666,
        "timezone": -7.0
    },
    "saint-hyacinthe": {
        "name": "Saint-Hyacinthe",
        "lat": 45.61678,
        "lon": -72.94914,
        "timezone": -4.0
    },
    "carabanchel": {
        "name": "Carabanchel",
        "lat": 40.39094,
        "lon": -3.7242,
        "timezone": 1.0
    },
    "timon": {
        "name": "Timon",
        "lat": -5.09417,
        "lon": -42.83667,
        "timezone": -3.0
    },
    "kamareddi": {
        "name": "Kamareddi",
        "lat": 18.31667,
        "lon": 78.35,
        "timezone": 5.5
    },
    "fusagasuga": {
        "name": "Fusagasuga",
        "lat": 4.33646,
        "lon": -74.36378,
        "timezone": -5.0
    },
    "lewisville": {
        "name": "Lewisville",
        "lat": 33.04623,
        "lon": -96.99417,
        "timezone": -5.0
    },
    "uyovu": {
        "name": "Uyovu",
        "lat": -3.28333,
        "lon": 31.52583,
        "timezone": 3.0
    },
    "evry": {
        "name": "Evry",
        "lat": 48.63333,
        "lon": 2.45,
        "timezone": 1.0
    },
    "planaltina": {
        "name": "Planaltina",
        "lat": -15.45278,
        "lon": -47.61417,
        "timezone": -3.0
    },
    "bacau": {
        "name": "Bacau",
        "lat": 46.56667,
        "lon": 26.9,
        "timezone": 2.0
    },
    "song cau": {
        "name": "Song Cau",
        "lat": 13.45,
        "lon": 109.21667,
        "timezone": 7.0
    },
    "itaborai": {
        "name": "Itaborai",
        "lat": -22.74444,
        "lon": -42.85944,
        "timezone": -3.0
    },
    "ipoti": {
        "name": "Ipoti",
        "lat": 7.87377,
        "lon": 5.07692,
        "timezone": 1.0
    },
    "bexley": {
        "name": "Bexley",
        "lat": 51.44162,
        "lon": 0.14866,
        "timezone": 1.0
    },
    "koudougou": {
        "name": "Koudougou",
        "lat": 12.25,
        "lon": -2.36667,
        "timezone": 0.0
    },
    "moriyama": {
        "name": "Moriyama",
        "lat": 35.06667,
        "lon": 135.98333,
        "timezone": 9.0
    },
    "harburg": {
        "name": "Harburg",
        "lat": 53.46057,
        "lon": 9.98388,
        "timezone": 1.0
    },
    "sargodha": {
        "name": "Sargodha",
        "lat": 32.08361,
        "lon": 72.67111,
        "timezone": 5.0
    },
    "qingzhou": {
        "name": "Qingzhou",
        "lat": 36.69667,
        "lon": 118.47972,
        "timezone": 8.0
    },
    "pescara": {
        "name": "Pescara",
        "lat": 42.46024,
        "lon": 14.21021,
        "timezone": 1.0
    },
    "frenda": {
        "name": "Frenda",
        "lat": 35.06544,
        "lon": 1.04945,
        "timezone": 1.0
    },
    "gapan": {
        "name": "Gapan",
        "lat": 15.3072,
        "lon": 120.9464,
        "timezone": 8.0
    },
    "colegiales": {
        "name": "Colegiales",
        "lat": -34.57365,
        "lon": -58.44924,
        "timezone": -3.0
    },
    "huicheng": {
        "name": "Huicheng",
        "lat": 23.03845,
        "lon": 116.28988,
        "timezone": 8.0
    },
    "jiangyan": {
        "name": "Jiangyan",
        "lat": 32.50611,
        "lon": 120.14278,
        "timezone": 8.0
    },
    "anderson": {
        "name": "Anderson",
        "lat": 40.10532,
        "lon": -85.68025,
        "timezone": -5.0
    },
    "daet": {
        "name": "Daet",
        "lat": 14.1122,
        "lon": 122.9553,
        "timezone": 8.0
    },
    "yangchun": {
        "name": "Yangchun",
        "lat": 22.16667,
        "lon": 111.78333,
        "timezone": 8.0
    },
    "palma soriano": {
        "name": "Palma Soriano",
        "lat": 20.21722,
        "lon": -75.99889,
        "timezone": -4.0
    },
    "yashio-shi": {
        "name": "Yashio-shi",
        "lat": 35.82255,
        "lon": 139.83905,
        "timezone": 9.0
    },
    "szombathely": {
        "name": "Szombathely",
        "lat": 47.23088,
        "lon": 16.62155,
        "timezone": 1.0
    },
    "al fujayrah": {
        "name": "Al Fujayrah",
        "lat": 25.11641,
        "lon": 56.34141,
        "timezone": 4.0
    },
    "mejicanos": {
        "name": "Mejicanos",
        "lat": 13.74028,
        "lon": -89.21306,
        "timezone": -6.0
    },
    "rajanpur": {
        "name": "Rajanpur",
        "lat": 29.10351,
        "lon": 70.32504,
        "timezone": 5.0
    },
    "hiratsuka": {
        "name": "Hiratsuka",
        "lat": 35.32306,
        "lon": 139.34222,
        "timezone": 9.0
    },
    "brits": {
        "name": "Brits",
        "lat": -25.63473,
        "lon": 27.78022,
        "timezone": 2.0
    },
    "faizabad": {
        "name": "Faizabad",
        "lat": 26.77691,
        "lon": 82.13292,
        "timezone": 5.5
    },
    "dewas": {
        "name": "Dewas",
        "lat": 22.96585,
        "lon": 76.05526,
        "timezone": 5.5
    },
    "taiping": {
        "name": "Taiping",
        "lat": 4.85,
        "lon": 100.73333,
        "timezone": 8.0
    },
    "jizzax": {
        "name": "Jizzax",
        "lat": 40.11583,
        "lon": 67.84222,
        "timezone": 5.0
    },
    "az zaqaziq": {
        "name": "Az Zaqaziq",
        "lat": 30.58768,
        "lon": 31.502,
        "timezone": 2.0
    },
    "petroupolis": {
        "name": "Petroupolis",
        "lat": 38.04187,
        "lon": 23.68494,
        "timezone": 2.0
    },
    "cikarang": {
        "name": "Cikarang",
        "lat": -6.26111,
        "lon": 107.15278,
        "timezone": 7.0
    },
    "horsham": {
        "name": "Horsham",
        "lat": 51.06395,
        "lon": -0.32719,
        "timezone": 1.0
    },
    "obonoma": {
        "name": "Obonoma",
        "lat": 4.70844,
        "lon": 6.79307,
        "timezone": 1.0
    },
    "tharyarwady": {
        "name": "Tharyarwady",
        "lat": 17.65399,
        "lon": 95.78813,
        "timezone": 6.5
    },
    "trichur": {
        "name": "Trichur",
        "lat": 10.51667,
        "lon": 76.21667,
        "timezone": 5.5
    },
    "sanjo": {
        "name": "Sanjo",
        "lat": 37.61667,
        "lon": 138.95,
        "timezone": 9.0
    },
    "stuttgart": {
        "name": "Stuttgart",
        "lat": 48.78232,
        "lon": 9.17702,
        "timezone": 1.0
    },
    "sidoarjo": {
        "name": "Sidoarjo",
        "lat": -7.4478,
        "lon": 112.7183,
        "timezone": 7.0
    },
    "stratford": {
        "name": "Stratford",
        "lat": 41.18454,
        "lon": -73.13317,
        "timezone": -4.0
    },
    "merzifon": {
        "name": "Merzifon",
        "lat": 40.87333,
        "lon": 35.46306,
        "timezone": 2.0
    },
    "aberdeen": {
        "name": "Aberdeen",
        "lat": 57.14369,
        "lon": -2.09814,
        "timezone": 1.0
    },
    "bergisch gladbach": {
        "name": "Bergisch Gladbach",
        "lat": 50.9856,
        "lon": 7.13298,
        "timezone": 1.0
    },
    "krusevac": {
        "name": "Krusevac",
        "lat": 43.58,
        "lon": 21.33389,
        "timezone": 1.0
    },
    "chelyabinsk": {
        "name": "Chelyabinsk",
        "lat": 55.15402,
        "lon": 61.42915,
        "timezone": 4.0
    },
    "aqtobe": {
        "name": "Aqtobe",
        "lat": 50.27969,
        "lon": 57.20718,
        "timezone": 4.0
    },
    "balkh": {
        "name": "Balkh",
        "lat": 36.75635,
        "lon": 66.8972,
        "timezone": 4.5
    },
    "vadodara": {
        "name": "Vadodara",
        "lat": 22.2994,
        "lon": 73.20812,
        "timezone": 5.5
    },
    "chust shahri": {
        "name": "Chust Shahri",
        "lat": 41.00936,
        "lon": 71.2287,
        "timezone": 5.0
    },
    "maler kotla": {
        "name": "Maler Kotla",
        "lat": 30.5309,
        "lon": 75.87949,
        "timezone": 5.5
    },
    "vriddhachalam": {
        "name": "Vriddhachalam",
        "lat": 11.51662,
        "lon": 79.32551,
        "timezone": 5.5
    },
    "zlitan": {
        "name": "Zlitan",
        "lat": 32.46738,
        "lon": 14.56874,
        "timezone": 2.0
    },
    "coban": {
        "name": "Coban",
        "lat": 15.47083,
        "lon": -90.37083,
        "timezone": -6.0
    },
    "asyut": {
        "name": "Asyut",
        "lat": 27.18096,
        "lon": 31.18368,
        "timezone": 2.0
    },
    "san pablo de las salinas": {
        "name": "San Pablo de las Salinas",
        "lat": 19.6667,
        "lon": -99.09527,
        "timezone": -6.0
    },
    "iwakuni": {
        "name": "Iwakuni",
        "lat": 34.15,
        "lon": 132.18333,
        "timezone": 9.0
    },
    "sherkot": {
        "name": "Sherkot",
        "lat": 29.32627,
        "lon": 78.57448,
        "timezone": 5.5
    },
    "manaus": {
        "name": "Manaus",
        "lat": -3.10194,
        "lon": -60.025,
        "timezone": -4.0
    },
    "leverkusen": {
        "name": "Leverkusen",
        "lat": 51.0303,
        "lon": 6.98432,
        "timezone": 1.0
    },
    "berbera": {
        "name": "Berbera",
        "lat": 10.43959,
        "lon": 45.01432,
        "timezone": 3.0
    },
    "corroios": {
        "name": "Corroios",
        "lat": 38.64502,
        "lon": -9.14843,
        "timezone": 0.0
    },
    "algiers": {
        "name": "Algiers",
        "lat": 36.7525,
        "lon": 3.04197,
        "timezone": 1.0
    },
    "tokyo": {
        "name": "Tokyo",
        "lat": 35.6895,
        "lon": 139.69171,
        "timezone": 9.0
    },
    "seguela": {
        "name": "Seguela",
        "lat": 7.96111,
        "lon": -6.67306,
        "timezone": 0.0
    },
    "chulucanas": {
        "name": "Chulucanas",
        "lat": -5.0925,
        "lon": -80.1625,
        "timezone": -5.0
    },
    "peristeri": {
        "name": "Peristeri",
        "lat": 38.01667,
        "lon": 23.7,
        "timezone": 2.0
    },
    "amaigbo": {
        "name": "Amaigbo",
        "lat": 5.78917,
        "lon": 7.83829,
        "timezone": 1.0
    },
    "fayetteville": {
        "name": "Fayetteville",
        "lat": 35.05266,
        "lon": -78.87836,
        "timezone": -4.0
    },
    "shirpur": {
        "name": "Shirpur",
        "lat": 21.35161,
        "lon": 74.88037,
        "timezone": 5.5
    },
    "elgin": {
        "name": "Elgin",
        "lat": 42.03725,
        "lon": -88.28119,
        "timezone": -5.0
    },
    "zhaogezhuang": {
        "name": "Zhaogezhuang",
        "lat": 39.76667,
        "lon": 118.4,
        "timezone": 8.0
    },
    "ashoknagar": {
        "name": "Ashoknagar",
        "lat": 24.57468,
        "lon": 77.73038,
        "timezone": 5.5
    },
    "gemena": {
        "name": "Gemena",
        "lat": 3.25651,
        "lon": 19.77234,
        "timezone": 1.0
    },
    "beersheba": {
        "name": "Beersheba",
        "lat": 31.25181,
        "lon": 34.7913,
        "timezone": 2.0
    },
    "cheremkhovo": {
        "name": "Cheremkhovo",
        "lat": 53.15611,
        "lon": 103.0675,
        "timezone": 7.0
    },
    "paracatu": {
        "name": "Paracatu",
        "lat": -17.22222,
        "lon": -46.87472,
        "timezone": -3.0
    },
    "santarem": {
        "name": "Santarem",
        "lat": -2.44306,
        "lon": -54.70833,
        "timezone": -4.0
    },
    "orebro": {
        "name": "Orebro",
        "lat": 59.27412,
        "lon": 15.2066,
        "timezone": 1.0
    },
    "iskenderun": {
        "name": "Iskenderun",
        "lat": 36.58718,
        "lon": 36.17347,
        "timezone": 2.0
    },
    "neuquen": {
        "name": "Neuquen",
        "lat": -38.95161,
        "lon": -68.0591,
        "timezone": -4.0
    },
    "laoag": {
        "name": "Laoag",
        "lat": 18.1978,
        "lon": 120.5957,
        "timezone": 8.0
    },
    "villavicencio": {
        "name": "Villavicencio",
        "lat": 4.142,
        "lon": -73.62664,
        "timezone": -5.0
    },
    "putatan": {
        "name": "Putatan",
        "lat": 5.9258,
        "lon": 116.06094,
        "timezone": 8.0
    },
    "rzhev": {
        "name": "Rzhev",
        "lat": 56.26241,
        "lon": 34.32817,
        "timezone": 2.0
    },
    "chervonohrad": {
        "name": "Chervonohrad",
        "lat": 50.39105,
        "lon": 24.23514,
        "timezone": 2.0
    },
    "habbouch": {
        "name": "Habbouch",
        "lat": 33.4075,
        "lon": 35.48278,
        "timezone": 3.0
    },
    "muzaffargarh": {
        "name": "Muzaffargarh",
        "lat": 30.07537,
        "lon": 71.19213,
        "timezone": 5.0
    },
    "budapest": {
        "name": "Budapest",
        "lat": 47.49801,
        "lon": 19.03991,
        "timezone": 1.0
    },
    "banqiao": {
        "name": "Banqiao",
        "lat": 25.01427,
        "lon": 121.46719,
        "timezone": 8.0
    },
    "toyohashi": {
        "name": "Toyohashi",
        "lat": 34.76667,
        "lon": 137.38333,
        "timezone": 9.0
    },
    "gaya": {
        "name": "Gaya",
        "lat": 24.79686,
        "lon": 85.00385,
        "timezone": 5.5
    },
    "fiditi": {
        "name": "Fiditi",
        "lat": 7.71361,
        "lon": 3.91722,
        "timezone": 1.0
    },
    "ishim": {
        "name": "Ishim",
        "lat": 56.11281,
        "lon": 69.49015,
        "timezone": 4.0
    },
    "nara-shi": {
        "name": "Nara-shi",
        "lat": 34.68505,
        "lon": 135.80485,
        "timezone": 9.0
    },
    "aachen": {
        "name": "Aachen",
        "lat": 50.77664,
        "lon": 6.08342,
        "timezone": 1.0
    },
    "anyang": {
        "name": "Anyang",
        "lat": 37.3925,
        "lon": 126.92694,
        "timezone": 9.0
    },
    "kulai": {
        "name": "Kulai",
        "lat": 1.6561,
        "lon": 103.6032,
        "timezone": 8.0
    },
    "binzhou": {
        "name": "Binzhou",
        "lat": 45.75281,
        "lon": 127.47986,
        "timezone": 8.0
    },
    "futtsu": {
        "name": "Futtsu",
        "lat": 35.30528,
        "lon": 139.81861,
        "timezone": 9.0
    },
    "hitachi-naka": {
        "name": "Hitachi-Naka",
        "lat": 36.39659,
        "lon": 140.53479,
        "timezone": 9.0
    },
    "tangshan": {
        "name": "Tangshan",
        "lat": 39.63333,
        "lon": 118.18333,
        "timezone": 8.0
    },
    "sambalpur": {
        "name": "Sambalpur",
        "lat": 21.45,
        "lon": 83.96667,
        "timezone": 5.5
    },
    "votkinsk": {
        "name": "Votkinsk",
        "lat": 57.04865,
        "lon": 53.98717,
        "timezone": 3.0
    },
    "araomoko ekiti": {
        "name": "Araomoko Ekiti",
        "lat": 7.70927,
        "lon": 5.04474,
        "timezone": 1.0
    },
    "mysore": {
        "name": "Mysore",
        "lat": 12.29791,
        "lon": 76.63925,
        "timezone": 5.5
    },
    "changji": {
        "name": "Changji",
        "lat": 44.01667,
        "lon": 87.31667,
        "timezone": 6.0
    },
    "khomeyni shahr": {
        "name": "Khomeyni Shahr",
        "lat": 32.6856,
        "lon": 51.53609,
        "timezone": 3.5
    },
    "daxi": {
        "name": "Daxi",
        "lat": 24.88373,
        "lon": 121.29043,
        "timezone": 8.0
    },
    "hebi": {
        "name": "Hebi",
        "lat": 35.89917,
        "lon": 114.1925,
        "timezone": 8.0
    },
    "suwa": {
        "name": "Suwa",
        "lat": 36.03799,
        "lon": 138.11308,
        "timezone": 9.0
    },
    "alphen aan den rijn": {
        "name": "Alphen aan den Rijn",
        "lat": 52.12917,
        "lon": 4.65546,
        "timezone": 1.0
    },
    "soweto": {
        "name": "Soweto",
        "lat": -26.26781,
        "lon": 27.85849,
        "timezone": 2.0
    },
    "vitry-sur-seine": {
        "name": "Vitry-sur-Seine",
        "lat": 48.78716,
        "lon": 2.40332,
        "timezone": 1.0
    },
    "yancheng": {
        "name": "Yancheng",
        "lat": 33.38556,
        "lon": 120.12528,
        "timezone": 8.0
    },
    "taytay": {
        "name": "Taytay",
        "lat": 14.5678,
        "lon": 121.1394,
        "timezone": 8.0
    },
    "waltham": {
        "name": "Waltham",
        "lat": 42.37649,
        "lon": -71.23561,
        "timezone": -4.0
    },
    "baghdad": {
        "name": "Baghdad",
        "lat": 33.34058,
        "lon": 44.40088,
        "timezone": 3.0
    },
    "simpang empat": {
        "name": "Simpang Empat",
        "lat": 4.95,
        "lon": 100.63333,
        "timezone": 8.0
    },
    "san miguel xico": {
        "name": "San Miguel Xico",
        "lat": 19.27081,
        "lon": -98.94803,
        "timezone": -6.0
    },
    "napoli": {
        "name": "Napoli",
        "lat": 40.83333,
        "lon": 14.25,
        "timezone": 1.0
    },
    "borivli": {
        "name": "Borivli",
        "lat": 19.23333,
        "lon": 72.85,
        "timezone": 5.5
    },
    "caldas": {
        "name": "Caldas",
        "lat": 6.09106,
        "lon": -75.63569,
        "timezone": -5.0
    },
    "istaravshan": {
        "name": "Istaravshan",
        "lat": 39.9142,
        "lon": 69.00328,
        "timezone": 5.0
    },
    "samut prakan": {
        "name": "Samut Prakan",
        "lat": 13.59934,
        "lon": 100.59675,
        "timezone": 7.0
    },
    "guamuchil": {
        "name": "Guamuchil",
        "lat": 25.45842,
        "lon": -108.07976,
        "timezone": -7.0
    },
    "groa de murviedro": {
        "name": "Groa de Murviedro",
        "lat": 39.64167,
        "lon": -0.23889,
        "timezone": 1.0
    },
    "joao monlevade": {
        "name": "Joao Monlevade",
        "lat": -19.81,
        "lon": -43.17361,
        "timezone": -3.0
    },
    "novocherkassk": {
        "name": "Novocherkassk",
        "lat": 47.42018,
        "lon": 40.09132,
        "timezone": 2.0
    },
    "narasaraopet": {
        "name": "Narasaraopet",
        "lat": 16.25,
        "lon": 80.06667,
        "timezone": 5.5
    },
    "pakxe": {
        "name": "Pakxe",
        "lat": 15.12022,
        "lon": 105.79898,
        "timezone": 7.0
    },
    "yamethin": {
        "name": "Yamethin",
        "lat": 20.43189,
        "lon": 96.13874,
        "timezone": 6.5
    },
    "korhogo": {
        "name": "Korhogo",
        "lat": 9.45803,
        "lon": -5.62961,
        "timezone": 0.0
    },
    "kitgum": {
        "name": "Kitgum",
        "lat": 3.27833,
        "lon": 32.88667,
        "timezone": 3.0
    },
    "yulin": {
        "name": "Yulin",
        "lat": 22.63333,
        "lon": 110.15,
        "timezone": 8.0
    },
    "warren": {
        "name": "Warren",
        "lat": 42.47754,
        "lon": -83.0277,
        "timezone": -4.0
    },
    "kineshma": {
        "name": "Kineshma",
        "lat": 57.43914,
        "lon": 42.12894,
        "timezone": 2.0
    },
    "xinzhou": {
        "name": "Xinzhou",
        "lat": 30.86667,
        "lon": 114.8,
        "timezone": 8.0
    },
    "xiaoweizhai": {
        "name": "Xiaoweizhai",
        "lat": 26.19028,
        "lon": 107.5125,
        "timezone": 8.0
    },
    "ganganagar": {
        "name": "Ganganagar",
        "lat": 29.92008,
        "lon": 73.87496,
        "timezone": 5.5
    },
    "pinar del rio": {
        "name": "Pinar del Rio",
        "lat": 22.4175,
        "lon": -83.69806,
        "timezone": -4.0
    },
    "saint-pierre": {
        "name": "Saint-Pierre",
        "lat": -21.3393,
        "lon": 55.47811,
        "timezone": 4.0
    },
    "puyang": {
        "name": "Puyang",
        "lat": 29.45679,
        "lon": 119.88872,
        "timezone": 8.0
    },
    "kimberley": {
        "name": "Kimberley",
        "lat": -28.73226,
        "lon": 24.76232,
        "timezone": 2.0
    },
    "kaohsiung": {
        "name": "Kaohsiung",
        "lat": 22.61626,
        "lon": 120.31333,
        "timezone": 8.0
    },
    "concepcion": {
        "name": "Concepcion",
        "lat": 15.32546,
        "lon": 120.65723,
        "timezone": 8.0
    },
    "national city": {
        "name": "National City",
        "lat": 32.67811,
        "lon": -117.0992,
        "timezone": -7.0
    },
    "goodyear": {
        "name": "Goodyear",
        "lat": 33.43532,
        "lon": -112.35821,
        "timezone": -7.0
    },
    "gaoyou": {
        "name": "Gaoyou",
        "lat": 32.78933,
        "lon": 119.44182,
        "timezone": 8.0
    },
    "baturaja": {
        "name": "Baturaja",
        "lat": -4.12891,
        "lon": 104.16695,
        "timezone": 7.0
    },
    "uman'": {
        "name": "Uman'",
        "lat": 48.74838,
        "lon": 30.22184,
        "timezone": 2.0
    },
    "tandil": {
        "name": "Tandil",
        "lat": -37.32167,
        "lon": -59.13316,
        "timezone": -3.0
    },
    "passaic": {
        "name": "Passaic",
        "lat": 40.85677,
        "lon": -74.12848,
        "timezone": -4.0
    },
    "dawei": {
        "name": "Dawei",
        "lat": 14.07375,
        "lon": 98.19423,
        "timezone": 6.5
    },
    "palma": {
        "name": "Palma",
        "lat": 39.56939,
        "lon": 2.65024,
        "timezone": 1.0
    },
    "armenia": {
        "name": "Armenia",
        "lat": 4.53389,
        "lon": -75.68111,
        "timezone": -5.0
    },
    "bawku": {
        "name": "Bawku",
        "lat": 11.0616,
        "lon": -0.24168,
        "timezone": 0.0
    },
    "sal'sk": {
        "name": "Sal'sk",
        "lat": 46.4747,
        "lon": 41.54114,
        "timezone": 2.0
    },
    "bhatpara": {
        "name": "Bhatpara",
        "lat": 22.86643,
        "lon": 88.40113,
        "timezone": 5.5
    },
    "cape town": {
        "name": "Cape Town",
        "lat": -33.92584,
        "lon": 18.42322,
        "timezone": 2.0
    },
    "solnechnogorsk": {
        "name": "Solnechnogorsk",
        "lat": 56.18333,
        "lon": 36.98333,
        "timezone": 2.0
    },
    "arapiraca": {
        "name": "Arapiraca",
        "lat": -9.7525,
        "lon": -36.66111,
        "timezone": -3.0
    },
    "macon": {
        "name": "Macon",
        "lat": 32.84069,
        "lon": -83.6324,
        "timezone": -4.0
    },
    "klagenfurt am woerthersee": {
        "name": "Klagenfurt am Woerthersee",
        "lat": 46.62472,
        "lon": 14.30528,
        "timezone": 1.0
    },
    "shangyu": {
        "name": "Shangyu",
        "lat": 30.01556,
        "lon": 120.87111,
        "timezone": 8.0
    },
    "lahti": {
        "name": "Lahti",
        "lat": 60.98267,
        "lon": 25.66151,
        "timezone": 2.0
    },
    "staryy oskol": {
        "name": "Staryy Oskol",
        "lat": 51.29667,
        "lon": 37.84167,
        "timezone": 2.0
    },
    "gifu-shi": {
        "name": "Gifu-shi",
        "lat": 35.42291,
        "lon": 136.76039,
        "timezone": 9.0
    },
    "decin": {
        "name": "Decin",
        "lat": 50.78215,
        "lon": 14.21478,
        "timezone": 1.0
    },
    "payyannur": {
        "name": "Payyannur",
        "lat": 12.1,
        "lon": 75.2,
        "timezone": 5.5
    },
    "fairfield": {
        "name": "Fairfield",
        "lat": 38.24936,
        "lon": -122.03997,
        "timezone": -7.0
    },
    "fes": {
        "name": "Fes",
        "lat": 34.03715,
        "lon": -4.9998,
        "timezone": 0.0
    },
    "grogol": {
        "name": "Grogol",
        "lat": -7.60111,
        "lon": 110.81861,
        "timezone": 7.0
    },
    "gojra": {
        "name": "Gojra",
        "lat": 31.14874,
        "lon": 72.68656,
        "timezone": 5.0
    },
    "gisenyi": {
        "name": "Gisenyi",
        "lat": -1.70278,
        "lon": 29.25639,
        "timezone": 2.0
    },
    "tan-tan": {
        "name": "Tan-Tan",
        "lat": 28.43799,
        "lon": -11.10321,
        "timezone": 0.0
    },
    "fujinomiya": {
        "name": "Fujinomiya",
        "lat": 35.21667,
        "lon": 138.61667,
        "timezone": 9.0
    },
    "ende": {
        "name": "Ende",
        "lat": -8.8432,
        "lon": 121.6623,
        "timezone": 8.0
    },
    "akita shi": {
        "name": "Akita Shi",
        "lat": 39.71806,
        "lon": 140.10333,
        "timezone": 9.0
    },
    "poznan": {
        "name": "Poznan",
        "lat": 52.40692,
        "lon": 16.92993,
        "timezone": 1.0
    },
    "homestead": {
        "name": "Homestead",
        "lat": 25.46872,
        "lon": -80.47756,
        "timezone": -4.0
    },
    "kroonstad": {
        "name": "Kroonstad",
        "lat": -27.65036,
        "lon": 27.23488,
        "timezone": 2.0
    },
    "siverek": {
        "name": "Siverek",
        "lat": 37.75502,
        "lon": 39.31667,
        "timezone": 2.0
    },
    "talkha": {
        "name": "Talkha",
        "lat": 31.0539,
        "lon": 31.37787,
        "timezone": 2.0
    },
    "ontario": {
        "name": "Ontario",
        "lat": 34.06334,
        "lon": -117.65089,
        "timezone": -7.0
    },
    "bensonhurst": {
        "name": "Bensonhurst",
        "lat": 40.60177,
        "lon": -73.99403,
        "timezone": -4.0
    },
    "maiquetia": {
        "name": "Maiquetia",
        "lat": 10.59621,
        "lon": -66.95485,
        "timezone": -4.0
    },
    "minab": {
        "name": "Minab",
        "lat": 27.1467,
        "lon": 57.0801,
        "timezone": 3.5
    },
    "gueines": {
        "name": "Gueines",
        "lat": 22.83611,
        "lon": -82.02806,
        "timezone": -4.0
    },
    "tonk": {
        "name": "Tonk",
        "lat": 26.16638,
        "lon": 75.78824,
        "timezone": 5.5
    },
    "rio grande": {
        "name": "Rio Grande",
        "lat": -32.035,
        "lon": -52.09861,
        "timezone": -3.0
    },
    "bocholt": {
        "name": "Bocholt",
        "lat": 51.83879,
        "lon": 6.61531,
        "timezone": 1.0
    },
    "pleasanton": {
        "name": "Pleasanton",
        "lat": 37.66243,
        "lon": -121.87468,
        "timezone": -7.0
    },
    "yudong": {
        "name": "Yudong",
        "lat": 29.385,
        "lon": 106.51944,
        "timezone": 8.0
    },
    "caucasia": {
        "name": "Caucasia",
        "lat": 7.98654,
        "lon": -75.19349,
        "timezone": -5.0
    },
    "brest": {
        "name": "Brest",
        "lat": 48.4,
        "lon": -4.48333,
        "timezone": 1.0
    },
    "najafabad": {
        "name": "Najafabad",
        "lat": 32.6344,
        "lon": 51.3668,
        "timezone": 3.5
    },
    "aflou": {
        "name": "Aflou",
        "lat": 34.1128,
        "lon": 2.10228,
        "timezone": 1.0
    },
    "swidnica": {
        "name": "Swidnica",
        "lat": 50.84378,
        "lon": 16.48859,
        "timezone": 1.0
    },
    "rizhao": {
        "name": "Rizhao",
        "lat": 35.4275,
        "lon": 119.45528,
        "timezone": 8.0
    },
    "maputo": {
        "name": "Maputo",
        "lat": -25.96553,
        "lon": 32.58322,
        "timezone": 2.0
    },
    "raipur": {
        "name": "Raipur",
        "lat": 21.23333,
        "lon": 81.63333,
        "timezone": 5.5
    },
    "riverview": {
        "name": "Riverview",
        "lat": 27.86614,
        "lon": -82.32648,
        "timezone": -4.0
    },
    "sig": {
        "name": "Sig",
        "lat": 35.52832,
        "lon": -0.19369,
        "timezone": 1.0
    },
    "stralsund": {
        "name": "Stralsund",
        "lat": 54.30911,
        "lon": 13.0818,
        "timezone": 1.0
    },
    "cagua": {
        "name": "Cagua",
        "lat": 10.18634,
        "lon": -67.45935,
        "timezone": -4.0
    },
    "itaugua": {
        "name": "Itaugua",
        "lat": -25.38333,
        "lon": -57.33333,
        "timezone": -3.0
    },
    "tirupati": {
        "name": "Tirupati",
        "lat": 13.65,
        "lon": 79.41667,
        "timezone": 5.5
    },
    "ludwigsburg": {
        "name": "Ludwigsburg",
        "lat": 48.89731,
        "lon": 9.19161,
        "timezone": 1.0
    },
    "targu-mures": {
        "name": "Targu-Mures",
        "lat": 46.54245,
        "lon": 24.55747,
        "timezone": 2.0
    },
    "hutang": {
        "name": "Hutang",
        "lat": 31.53429,
        "lon": 119.49,
        "timezone": 8.0
    },
    "soroti": {
        "name": "Soroti",
        "lat": 1.71464,
        "lon": 33.61113,
        "timezone": 3.0
    },
    "guntur": {
        "name": "Guntur",
        "lat": 16.3,
        "lon": 80.45,
        "timezone": 5.5
    },
    "tracy": {
        "name": "Tracy",
        "lat": 37.73965,
        "lon": -121.42522,
        "timezone": -7.0
    },
    "mingshui": {
        "name": "Mingshui",
        "lat": 47.16667,
        "lon": 125.91667,
        "timezone": 8.0
    },
    "gardena": {
        "name": "Gardena",
        "lat": 33.88835,
        "lon": -118.30896,
        "timezone": -7.0
    },
    "melbourne": {
        "name": "Melbourne",
        "lat": 28.08363,
        "lon": -80.60811,
        "timezone": -4.0
    },
    "takamatsu-shi": {
        "name": "Takamatsu-shi",
        "lat": 34.34028,
        "lon": 134.04333,
        "timezone": 9.0
    },
    "roodepoort": {
        "name": "Roodepoort",
        "lat": -26.1625,
        "lon": 27.8725,
        "timezone": 2.0
    },
    "cuddalore": {
        "name": "Cuddalore",
        "lat": 11.75,
        "lon": 79.75,
        "timezone": 5.5
    },
    "mezhdurechensk": {
        "name": "Mezhdurechensk",
        "lat": 53.69417,
        "lon": 88.06028,
        "timezone": 6.0
    },
    "sloviansk": {
        "name": "Sloviansk",
        "lat": 48.86667,
        "lon": 37.61667,
        "timezone": 2.0
    },
    "kalna": {
        "name": "Kalna",
        "lat": 23.21944,
        "lon": 88.36295,
        "timezone": 5.5
    },
    "esslingen": {
        "name": "Esslingen",
        "lat": 48.73961,
        "lon": 9.30473,
        "timezone": 1.0
    },
    "akola": {
        "name": "Akola",
        "lat": 20.73333,
        "lon": 77.0,
        "timezone": 5.5
    },
    "linshui": {
        "name": "Linshui",
        "lat": 36.42472,
        "lon": 114.20472,
        "timezone": 8.0
    },
    "east hampton": {
        "name": "East Hampton",
        "lat": 37.03737,
        "lon": -76.33161,
        "timezone": -4.0
    },
    "neyyattinkara": {
        "name": "Neyyattinkara",
        "lat": 8.4,
        "lon": 77.08333,
        "timezone": 5.5
    },
    "qujing": {
        "name": "Qujing",
        "lat": 25.48333,
        "lon": 103.78333,
        "timezone": 8.0
    },
    "sokode": {
        "name": "Sokode",
        "lat": 8.98333,
        "lon": 1.13333,
        "timezone": 0.0
    },
    "samara": {
        "name": "Samara",
        "lat": 53.20006,
        "lon": 50.15,
        "timezone": 3.0
    },
    "nouakchott": {
        "name": "Nouakchott",
        "lat": 18.08581,
        "lon": -15.9785,
        "timezone": 0.0
    },
    "cacapava": {
        "name": "Cacapava",
        "lat": -23.10083,
        "lon": -45.70694,
        "timezone": -3.0
    },
    "szeged": {
        "name": "Szeged",
        "lat": 46.253,
        "lon": 20.14824,
        "timezone": 1.0
    },
    "fukui-shi": {
        "name": "Fukui-shi",
        "lat": 36.06443,
        "lon": 136.22257,
        "timezone": 9.0
    },
    "chaohu": {
        "name": "Chaohu",
        "lat": 31.6,
        "lon": 117.86667,
        "timezone": 8.0
    },
    "kuito": {
        "name": "Kuito",
        "lat": -12.38333,
        "lon": 16.93333,
        "timezone": 1.0
    },
    "chino hills": {
        "name": "Chino Hills",
        "lat": 33.9938,
        "lon": -117.75888,
        "timezone": -7.0
    },
    "sidhi": {
        "name": "Sidhi",
        "lat": 24.39329,
        "lon": 81.87935,
        "timezone": 5.5
    },
    "bergen op zoom": {
        "name": "Bergen op Zoom",
        "lat": 51.495,
        "lon": 4.29167,
        "timezone": 1.0
    },
    "jalalpur": {
        "name": "Jalalpur",
        "lat": 32.63744,
        "lon": 74.21829,
        "timezone": 5.0
    },
    "ipswich": {
        "name": "Ipswich",
        "lat": 52.05917,
        "lon": 1.15545,
        "timezone": 1.0
    },
    "sioux city": {
        "name": "Sioux City",
        "lat": 42.49999,
        "lon": -96.40031,
        "timezone": -5.0
    },
    "lleida": {
        "name": "Lleida",
        "lat": 41.61667,
        "lon": 0.61667,
        "timezone": 1.0
    },
    "meerut": {
        "name": "Meerut",
        "lat": 28.97155,
        "lon": 77.71934,
        "timezone": 5.5
    },
    "zuerich (kreis 11)": {
        "name": "Zuerich (Kreis 11)",
        "lat": 47.42326,
        "lon": 8.52166,
        "timezone": 1.0
    },
    "shahabad": {
        "name": "Shahabad",
        "lat": 17.1307,
        "lon": 76.94361,
        "timezone": 5.5
    },
    "zhongxing": {
        "name": "Zhongxing",
        "lat": 33.70389,
        "lon": 118.67917,
        "timezone": 8.0
    },
    "verona": {
        "name": "Verona",
        "lat": 45.43419,
        "lon": 10.99779,
        "timezone": 1.0
    },
    "minokamo": {
        "name": "Minokamo",
        "lat": 35.48199,
        "lon": 137.02166,
        "timezone": 9.0
    },
    "el viejo": {
        "name": "El Viejo",
        "lat": 12.6633,
        "lon": -87.16722,
        "timezone": -6.0
    },
    "stavropol'": {
        "name": "Stavropol'",
        "lat": 45.0428,
        "lon": 41.9734,
        "timezone": 2.0
    },
    "oaxaca de juarez": {
        "name": "Oaxaca de Juarez",
        "lat": 17.05,
        "lon": -96.71667,
        "timezone": -6.0
    },
    "nnewi": {
        "name": "Nnewi",
        "lat": 6.01986,
        "lon": 6.91478,
        "timezone": 1.0
    },
    "glendora": {
        "name": "Glendora",
        "lat": 34.13612,
        "lon": -117.86534,
        "timezone": -7.0
    },
    "solihull": {
        "name": "Solihull",
        "lat": 52.41426,
        "lon": -1.78094,
        "timezone": 1.0
    },
    "mangere": {
        "name": "Mangere",
        "lat": -36.96807,
        "lon": 174.79875,
        "timezone": 13.0
    },
    "granollers": {
        "name": "Granollers",
        "lat": 41.60797,
        "lon": 2.28773,
        "timezone": 1.0
    },
    "dourados": {
        "name": "Dourados",
        "lat": -22.22111,
        "lon": -54.80556,
        "timezone": -4.0
    },
    "levittown": {
        "name": "Levittown",
        "lat": 40.15511,
        "lon": -74.82877,
        "timezone": -4.0
    },
    "shashi": {
        "name": "Shashi",
        "lat": 30.30722,
        "lon": 112.24472,
        "timezone": 8.0
    },
    "harbin": {
        "name": "Harbin",
        "lat": 45.75,
        "lon": 126.65,
        "timezone": 8.0
    },
    "mikhaylovka": {
        "name": "Mikhaylovka",
        "lat": 50.06,
        "lon": 43.2379,
        "timezone": 4.0
    },
    "mitte": {
        "name": "Mitte",
        "lat": 52.52131,
        "lon": 13.39784,
        "timezone": 1.0
    },
    "saham": {
        "name": "Saham",
        "lat": 24.17222,
        "lon": 56.88861,
        "timezone": 4.0
    },
    "bhakkar": {
        "name": "Bhakkar",
        "lat": 31.62525,
        "lon": 71.06574,
        "timezone": 5.0
    },
    "kuala terengganu": {
        "name": "Kuala Terengganu",
        "lat": 5.3302,
        "lon": 103.1408,
        "timezone": 8.0
    },
    "xiannu": {
        "name": "Xiannu",
        "lat": 32.42806,
        "lon": 119.56048,
        "timezone": 8.0
    },
    "puerto plata": {
        "name": "Puerto Plata",
        "lat": 19.79344,
        "lon": -70.6884,
        "timezone": -4.0
    },
    "sandy hills": {
        "name": "Sandy Hills",
        "lat": 40.58106,
        "lon": -111.85077,
        "timezone": -6.0
    },
    "channapatna": {
        "name": "Channapatna",
        "lat": 12.65,
        "lon": 77.21667,
        "timezone": 5.5
    },
    "kang-neung": {
        "name": "Kang-neung",
        "lat": 37.75556,
        "lon": 128.89611,
        "timezone": 9.0
    },
    "ocala": {
        "name": "Ocala",
        "lat": 29.1872,
        "lon": -82.14009,
        "timezone": -4.0
    },
    "necochea": {
        "name": "Necochea",
        "lat": -38.54726,
        "lon": -58.73675,
        "timezone": -3.0
    },
    "avignon": {
        "name": "Avignon",
        "lat": 43.94834,
        "lon": 4.80892,
        "timezone": 1.0
    },
    "shendi": {
        "name": "Shendi",
        "lat": 16.6915,
        "lon": 33.4341,
        "timezone": 2.0
    },
    "gaoping": {
        "name": "Gaoping",
        "lat": 30.77576,
        "lon": 106.10294,
        "timezone": 8.0
    },
    "santiago de queretaro": {
        "name": "Santiago de Queretaro",
        "lat": 20.6,
        "lon": -100.38333,
        "timezone": -6.0
    },
    "haverhill": {
        "name": "Haverhill",
        "lat": 42.7762,
        "lon": -71.07728,
        "timezone": -4.0
    },
    "daytona beach": {
        "name": "Daytona Beach",
        "lat": 29.21081,
        "lon": -81.02283,
        "timezone": -4.0
    },
    "royal tunbridge wells": {
        "name": "Royal Tunbridge Wells",
        "lat": 51.13245,
        "lon": 0.26333,
        "timezone": 1.0
    },
    "kyaukse": {
        "name": "Kyaukse",
        "lat": 21.6056,
        "lon": 96.13508,
        "timezone": 6.5
    },
    "inuyama": {
        "name": "Inuyama",
        "lat": 35.37995,
        "lon": 136.94295,
        "timezone": 9.0
    },
    "meftah": {
        "name": "Meftah",
        "lat": 36.6204,
        "lon": 3.22248,
        "timezone": 1.0
    },
    "krasnokamensk": {
        "name": "Krasnokamensk",
        "lat": 50.0979,
        "lon": 118.0369,
        "timezone": 8.0
    },
    "jatibarang": {
        "name": "Jatibarang",
        "lat": -6.47472,
        "lon": 108.31528,
        "timezone": 7.0
    },
    "nazran'": {
        "name": "Nazran'",
        "lat": 43.22597,
        "lon": 44.77323,
        "timezone": 2.0
    },
    "hengelo": {
        "name": "Hengelo",
        "lat": 52.26583,
        "lon": 6.79306,
        "timezone": 1.0
    },
    "pamplona": {
        "name": "Pamplona",
        "lat": 42.81687,
        "lon": -1.64323,
        "timezone": 1.0
    },
    "khalandrion": {
        "name": "Khalandrion",
        "lat": 38.03058,
        "lon": 23.79793,
        "timezone": 2.0
    },
    "lund": {
        "name": "Lund",
        "lat": 55.70584,
        "lon": 13.19321,
        "timezone": 1.0
    },
    "halisahar": {
        "name": "Halisahar",
        "lat": 22.93218,
        "lon": 88.41859,
        "timezone": 5.5
    },
    "uzhhorod": {
        "name": "Uzhhorod",
        "lat": 48.61667,
        "lon": 22.3,
        "timezone": 2.0
    },
    "zhuji": {
        "name": "Zhuji",
        "lat": 29.71876,
        "lon": 120.24233,
        "timezone": 8.0
    },
    "wedding bezirk": {
        "name": "Wedding Bezirk",
        "lat": 52.55,
        "lon": 13.36667,
        "timezone": 1.0
    },
    "velsen-zuid": {
        "name": "Velsen-Zuid",
        "lat": 52.46,
        "lon": 4.65,
        "timezone": 1.0
    },
    "udgir": {
        "name": "Udgir",
        "lat": 18.39258,
        "lon": 77.11756,
        "timezone": 5.5
    },
    "hoboken": {
        "name": "Hoboken",
        "lat": 40.74399,
        "lon": -74.03236,
        "timezone": -4.0
    },
    "zaporizhzhya": {
        "name": "Zaporizhzhya",
        "lat": 47.82289,
        "lon": 35.19031,
        "timezone": 2.0
    },
    "david": {
        "name": "David",
        "lat": 8.42729,
        "lon": -82.43085,
        "timezone": -5.0
    },
    "saqanis": {
        "name": "Saqanis",
        "lat": 35.78333,
        "lon": 10.8,
        "timezone": 1.0
    },
    "zarinsk": {
        "name": "Zarinsk",
        "lat": 53.7074,
        "lon": 84.9493,
        "timezone": 5.0
    },
    "volzhsk": {
        "name": "Volzhsk",
        "lat": 55.86638,
        "lon": 48.3594,
        "timezone": 2.0
    },
    "gorakhpur": {
        "name": "Gorakhpur",
        "lat": 26.75479,
        "lon": 83.37235,
        "timezone": 5.5
    },
    "portsmouth heights": {
        "name": "Portsmouth Heights",
        "lat": 36.82098,
        "lon": -76.36883,
        "timezone": -4.0
    },
    "shikarpur": {
        "name": "Shikarpur",
        "lat": 27.95706,
        "lon": 68.63789,
        "timezone": 5.0
    },
    "born": {
        "name": "Born",
        "lat": 51.03167,
        "lon": 5.80972,
        "timezone": 1.0
    },
    "cruzeiro": {
        "name": "Cruzeiro",
        "lat": -22.57611,
        "lon": -44.96278,
        "timezone": -3.0
    },
    "malolos": {
        "name": "Malolos",
        "lat": 14.8443,
        "lon": 120.81039,
        "timezone": 8.0
    },
    "kattaqo'rg'on": {
        "name": "Kattaqo'rg'on",
        "lat": 39.89889,
        "lon": 66.25611,
        "timezone": 5.0
    },
    "hushitai": {
        "name": "Hushitai",
        "lat": 41.93222,
        "lon": 123.51139,
        "timezone": 8.0
    },
    "mudanjiang": {
        "name": "Mudanjiang",
        "lat": 44.58333,
        "lon": 129.6,
        "timezone": 8.0
    },
    "paragominas": {
        "name": "Paragominas",
        "lat": -2.96667,
        "lon": -47.48333,
        "timezone": -3.0
    },
    "thornton": {
        "name": "Thornton",
        "lat": 39.86804,
        "lon": -104.97192,
        "timezone": -6.0
    },
    "eluru": {
        "name": "Eluru",
        "lat": 16.7,
        "lon": 81.1,
        "timezone": 5.5
    },
    "santa cruz de barahona": {
        "name": "Santa Cruz de Barahona",
        "lat": 18.20854,
        "lon": -71.10077,
        "timezone": -4.0
    },
    "limbe": {
        "name": "Limbe",
        "lat": 4.0242,
        "lon": 9.2149,
        "timezone": 1.0
    },
    "cukai": {
        "name": "Cukai",
        "lat": 4.25,
        "lon": 103.41667,
        "timezone": 8.0
    },
    "bilimora": {
        "name": "Bilimora",
        "lat": 20.75,
        "lon": 72.95,
        "timezone": 5.5
    },
    "masaurhi buzurg": {
        "name": "Masaurhi Buzurg",
        "lat": 25.35249,
        "lon": 85.03445,
        "timezone": 5.5
    },
    "altay": {
        "name": "Altay",
        "lat": 47.86667,
        "lon": 88.11667,
        "timezone": 6.0
    },
    "odivelas": {
        "name": "Odivelas",
        "lat": 38.79269,
        "lon": -9.1838,
        "timezone": 0.0
    },
    "dibrugarh": {
        "name": "Dibrugarh",
        "lat": 27.47989,
        "lon": 94.90837,
        "timezone": 5.5
    },
    "sarasota": {
        "name": "Sarasota",
        "lat": 27.33643,
        "lon": -82.53065,
        "timezone": -4.0
    },
    "watsonville": {
        "name": "Watsonville",
        "lat": 36.91023,
        "lon": -121.75689,
        "timezone": -7.0
    },
    "luqiao": {
        "name": "Luqiao",
        "lat": 28.58023,
        "lon": 121.37491,
        "timezone": 8.0
    },
    "blois": {
        "name": "Blois",
        "lat": 47.58333,
        "lon": 1.33333,
        "timezone": 1.0
    },
    "ragusa": {
        "name": "Ragusa",
        "lat": 36.92824,
        "lon": 14.71719,
        "timezone": 1.0
    },
    "pinsk": {
        "name": "Pinsk",
        "lat": 52.1229,
        "lon": 26.0951,
        "timezone": 2.0
    },
    "wakayama-shi": {
        "name": "Wakayama-shi",
        "lat": 34.22611,
        "lon": 135.1675,
        "timezone": 9.0
    },
    "oviedo": {
        "name": "Oviedo",
        "lat": 43.36029,
        "lon": -5.84476,
        "timezone": 1.0
    },
    "rupnagar": {
        "name": "Rupnagar",
        "lat": 30.96878,
        "lon": 76.52557,
        "timezone": 5.5
    },
    "gresik": {
        "name": "Gresik",
        "lat": -7.15389,
        "lon": 112.65611,
        "timezone": 7.0
    },
    "bento goncalves": {
        "name": "Bento Goncalves",
        "lat": -29.17139,
        "lon": -51.51917,
        "timezone": -3.0
    },
    "castanhal": {
        "name": "Castanhal",
        "lat": -1.29389,
        "lon": -47.92639,
        "timezone": -3.0
    },
    "mishima": {
        "name": "Mishima",
        "lat": 35.11667,
        "lon": 138.91667,
        "timezone": 9.0
    },
    "bapatla": {
        "name": "Bapatla",
        "lat": 15.9,
        "lon": 80.46667,
        "timezone": 5.5
    },
    "benxi": {
        "name": "Benxi",
        "lat": 41.28861,
        "lon": 123.765,
        "timezone": 8.0
    },
    "bismil": {
        "name": "Bismil",
        "lat": 37.84861,
        "lon": 40.66583,
        "timezone": 2.0
    },
    "etawah": {
        "name": "Etawah",
        "lat": 26.7778,
        "lon": 79.02159,
        "timezone": 5.5
    },
    "hongjiang": {
        "name": "Hongjiang",
        "lat": 27.11,
        "lon": 109.99556,
        "timezone": 8.0
    },
    "caaguazu": {
        "name": "Caaguazu",
        "lat": -25.45,
        "lon": -56.01667,
        "timezone": -3.0
    },
    "mexicali": {
        "name": "Mexicali",
        "lat": 32.65194,
        "lon": -115.46833,
        "timezone": -7.0
    },
    "mahasamund": {
        "name": "Mahasamund",
        "lat": 21.1104,
        "lon": 82.09796,
        "timezone": 5.5
    },
    "bijar": {
        "name": "Bijar",
        "lat": 35.8668,
        "lon": 47.60506,
        "timezone": 3.5
    },
    "birkhadem": {
        "name": "Birkhadem",
        "lat": 36.71499,
        "lon": 3.05002,
        "timezone": 1.0
    },
    "matamoros": {
        "name": "Matamoros",
        "lat": 25.52699,
        "lon": -103.22847,
        "timezone": -6.0
    },
    "kostyantynivka": {
        "name": "Kostyantynivka",
        "lat": 48.5277,
        "lon": 37.7069,
        "timezone": 2.0
    },
    "dongcun": {
        "name": "Dongcun",
        "lat": 36.77667,
        "lon": 121.15972,
        "timezone": 8.0
    },
    "alwar": {
        "name": "Alwar",
        "lat": 27.56246,
        "lon": 76.625,
        "timezone": 5.5
    },
    "guanambi": {
        "name": "Guanambi",
        "lat": -14.22333,
        "lon": -42.78139,
        "timezone": -3.0
    },
    "boksburg": {
        "name": "Boksburg",
        "lat": -26.21197,
        "lon": 28.25958,
        "timezone": 2.0
    },
    "karlovy vary": {
        "name": "Karlovy Vary",
        "lat": 50.23271,
        "lon": 12.87117,
        "timezone": 1.0
    },
    "montebello": {
        "name": "Montebello",
        "lat": 34.00946,
        "lon": -118.10535,
        "timezone": -7.0
    },
    "puno": {
        "name": "Puno",
        "lat": -15.8422,
        "lon": -70.0199,
        "timezone": -5.0
    },
    "joliet": {
        "name": "Joliet",
        "lat": 41.52503,
        "lon": -88.08173,
        "timezone": -5.0
    },
    "parsabad": {
        "name": "Parsabad",
        "lat": 39.6482,
        "lon": 47.9174,
        "timezone": 3.5
    },
    "pulheim": {
        "name": "Pulheim",
        "lat": 50.99965,
        "lon": 6.80632,
        "timezone": 1.0
    },
    "carmichael": {
        "name": "Carmichael",
        "lat": 38.61713,
        "lon": -121.32828,
        "timezone": -7.0
    },
    "mississauga": {
        "name": "Mississauga",
        "lat": 43.5789,
        "lon": -79.6583,
        "timezone": -4.0
    },
    "samsun": {
        "name": "Samsun",
        "lat": 41.28667,
        "lon": 36.33,
        "timezone": 2.0
    },
    "asaka": {
        "name": "Asaka",
        "lat": 40.64153,
        "lon": 72.23868,
        "timezone": 5.0
    },
    "dhangarhi": {
        "name": "Dhangarhi",
        "lat": 28.70792,
        "lon": 80.59611,
        "timezone": 5.75
    },
    "managua": {
        "name": "Managua",
        "lat": 12.13282,
        "lon": -86.2504,
        "timezone": -6.0
    },
    "kastamonu": {
        "name": "Kastamonu",
        "lat": 41.37805,
        "lon": 33.77528,
        "timezone": 2.0
    },
    "magadan": {
        "name": "Magadan",
        "lat": 59.5638,
        "lon": 150.80347,
        "timezone": 10.0
    },
    "valsad": {
        "name": "Valsad",
        "lat": 20.63333,
        "lon": 72.93333,
        "timezone": 5.5
    },
    "trento": {
        "name": "Trento",
        "lat": 46.06787,
        "lon": 11.12108,
        "timezone": 1.0
    },
    "esmeraldas": {
        "name": "Esmeraldas",
        "lat": -19.7625,
        "lon": -44.31389,
        "timezone": -3.0
    },
    "lakewood": {
        "name": "Lakewood",
        "lat": 47.17176,
        "lon": -122.51846,
        "timezone": -7.0
    },
    "londonderry county borough": {
        "name": "Londonderry County Borough",
        "lat": 54.99721,
        "lon": -7.30917,
        "timezone": 1.0
    },
    "ouargla": {
        "name": "Ouargla",
        "lat": 31.94932,
        "lon": 5.32502,
        "timezone": 1.0
    },
    "veenendaal": {
        "name": "Veenendaal",
        "lat": 52.02863,
        "lon": 5.55891,
        "timezone": 1.0
    },
    "hirosaki": {
        "name": "Hirosaki",
        "lat": 40.59306,
        "lon": 140.4725,
        "timezone": 9.0
    },
    "weinan": {
        "name": "Weinan",
        "lat": 34.50355,
        "lon": 109.50891,
        "timezone": 8.0
    },
    "kunnamkulam": {
        "name": "Kunnamkulam",
        "lat": 10.65,
        "lon": 76.08333,
        "timezone": 5.5
    },
    "zhengzhou": {
        "name": "Zhengzhou",
        "lat": 34.75778,
        "lon": 113.64861,
        "timezone": 8.0
    },
    "peterborough": {
        "name": "Peterborough",
        "lat": 52.57364,
        "lon": -0.24777,
        "timezone": 1.0
    },
    "bowie": {
        "name": "Bowie",
        "lat": 38.94278,
        "lon": -76.73028,
        "timezone": -4.0
    },
    "wyoming": {
        "name": "Wyoming",
        "lat": 42.91336,
        "lon": -85.70531,
        "timezone": -4.0
    },
    "chuncheon": {
        "name": "Chuncheon",
        "lat": 37.87472,
        "lon": 127.73417,
        "timezone": 9.0
    },
    "perth": {
        "name": "Perth",
        "lat": -31.95224,
        "lon": 115.8614,
        "timezone": 8.0
    },
    "maizuru": {
        "name": "Maizuru",
        "lat": 35.45,
        "lon": 135.33333,
        "timezone": 9.0
    },
    "sendai-shi": {
        "name": "Sendai-shi",
        "lat": 38.26889,
        "lon": 140.87194,
        "timezone": 9.0
    },
    "shchekino": {
        "name": "Shchekino",
        "lat": 54.00513,
        "lon": 37.52194,
        "timezone": 2.0
    },
    "noida": {
        "name": "Noida",
        "lat": 28.58,
        "lon": 77.33,
        "timezone": 5.5
    },
    "birnin kebbi": {
        "name": "Birnin Kebbi",
        "lat": 12.45389,
        "lon": 4.1975,
        "timezone": 1.0
    },
    "siddipet": {
        "name": "Siddipet",
        "lat": 18.1,
        "lon": 78.85,
        "timezone": 5.5
    },
    "nandu": {
        "name": "Nandu",
        "lat": 22.8525,
        "lon": 110.82333,
        "timezone": 8.0
    },
    "kakamigahara": {
        "name": "Kakamigahara",
        "lat": 35.41667,
        "lon": 136.86667,
        "timezone": 9.0
    },
    "zhob": {
        "name": "Zhob",
        "lat": 31.34111,
        "lon": 69.44806,
        "timezone": 5.0
    },
    "maracaibo": {
        "name": "Maracaibo",
        "lat": 10.63167,
        "lon": -71.64056,
        "timezone": -4.0
    },
    "lishui": {
        "name": "Lishui",
        "lat": 28.46042,
        "lon": 119.91029,
        "timezone": 8.0
    },
    "shiraoka": {
        "name": "Shiraoka",
        "lat": 36.01667,
        "lon": 139.66667,
        "timezone": 9.0
    },
    "kista": {
        "name": "Kista",
        "lat": 59.40316,
        "lon": 17.94479,
        "timezone": 1.0
    },
    "tianpeng": {
        "name": "Tianpeng",
        "lat": 30.98664,
        "lon": 103.93933,
        "timezone": 8.0
    },
    "shahriar": {
        "name": "Shahriar",
        "lat": 35.65884,
        "lon": 51.05775,
        "timezone": 3.5
    },
    "colombes": {
        "name": "Colombes",
        "lat": 48.91882,
        "lon": 2.25404,
        "timezone": 1.0
    },
    "saarbrucken": {
        "name": "Saarbrucken",
        "lat": 49.2354,
        "lon": 6.98165,
        "timezone": 1.0
    },
    "lippstadt": {
        "name": "Lippstadt",
        "lat": 51.67369,
        "lon": 8.34482,
        "timezone": 1.0
    },
    "barsi": {
        "name": "Barsi",
        "lat": 18.23454,
        "lon": 75.69275,
        "timezone": 5.5
    },
    "novoural'sk": {
        "name": "Novoural'sk",
        "lat": 57.24389,
        "lon": 60.08389,
        "timezone": 4.0
    },
    "araucaria": {
        "name": "Araucaria",
        "lat": -25.59306,
        "lon": -49.41028,
        "timezone": -3.0
    },
    "aligudarz": {
        "name": "Aligudarz",
        "lat": 33.40063,
        "lon": 49.6949,
        "timezone": 3.5
    },
    "mcallen": {
        "name": "McAllen",
        "lat": 26.20341,
        "lon": -98.23001,
        "timezone": -5.0
    },
    "yokohama-shi": {
        "name": "Yokohama-shi",
        "lat": 35.44778,
        "lon": 139.6425,
        "timezone": 9.0
    },
    "villingen-schwenningen": {
        "name": "Villingen-Schwenningen",
        "lat": 48.06226,
        "lon": 8.49358,
        "timezone": 1.0
    },
    "bergedorf": {
        "name": "Bergedorf",
        "lat": 53.48462,
        "lon": 10.22904,
        "timezone": 1.0
    },
    "tahta": {
        "name": "Tahta",
        "lat": 26.7693,
        "lon": 31.50214,
        "timezone": 2.0
    },
    "morecambe": {
        "name": "Morecambe",
        "lat": 54.06835,
        "lon": -2.86108,
        "timezone": 1.0
    },
    "changde": {
        "name": "Changde",
        "lat": 29.04638,
        "lon": 111.6783,
        "timezone": 8.0
    },
    "craigavon": {
        "name": "Craigavon",
        "lat": 54.44709,
        "lon": -6.387,
        "timezone": 1.0
    },
    "sindhnur": {
        "name": "Sindhnur",
        "lat": 15.78333,
        "lon": 76.76667,
        "timezone": 5.5
    },
    "turkmenabat": {
        "name": "Turkmenabat",
        "lat": 39.07328,
        "lon": 63.57862,
        "timezone": 4.0
    },
    "jos": {
        "name": "Jos",
        "lat": 9.91667,
        "lon": 8.9,
        "timezone": 1.0
    },
    "kaposvar": {
        "name": "Kaposvar",
        "lat": 46.36667,
        "lon": 17.8,
        "timezone": 1.0
    },
    "marg`ilon": {
        "name": "Marg`ilon",
        "lat": 40.47111,
        "lon": 71.72472,
        "timezone": 5.0
    },
    "pozzuoli": {
        "name": "Pozzuoli",
        "lat": 40.83196,
        "lon": 14.11001,
        "timezone": 1.0
    },
    "kavakli": {
        "name": "Kavakli",
        "lat": 41.09258,
        "lon": 28.33172,
        "timezone": 2.0
    },
    "luziania": {
        "name": "Luziania",
        "lat": -16.2525,
        "lon": -47.95028,
        "timezone": -3.0
    },
    "suwalki": {
        "name": "Suwalki",
        "lat": 54.11175,
        "lon": 22.93087,
        "timezone": 1.0
    },
    "tiruttangal": {
        "name": "Tiruttangal",
        "lat": 9.48333,
        "lon": 77.83333,
        "timezone": 5.5
    },
    "marilia": {
        "name": "Marilia",
        "lat": -22.21389,
        "lon": -49.94583,
        "timezone": -3.0
    },
    "gushu": {
        "name": "Gushu",
        "lat": 31.56055,
        "lon": 118.48147,
        "timezone": 8.0
    },
    "chapeco": {
        "name": "Chapeco",
        "lat": -27.09639,
        "lon": -52.61833,
        "timezone": -3.0
    },
    "zeytinburnu": {
        "name": "Zeytinburnu",
        "lat": 40.99441,
        "lon": 28.90417,
        "timezone": 2.0
    },
    "bago city": {
        "name": "Bago City",
        "lat": 10.53333,
        "lon": 122.83333,
        "timezone": 8.0
    },
    "shantou": {
        "name": "Shantou",
        "lat": 23.36814,
        "lon": 116.71479,
        "timezone": 8.0
    },
    "brampton": {
        "name": "Brampton",
        "lat": 43.68341,
        "lon": -79.76633,
        "timezone": -4.0
    },
    "higashimurayama-shi": {
        "name": "Higashimurayama-shi",
        "lat": 35.75459,
        "lon": 139.46852,
        "timezone": 9.0
    },
    "layton": {
        "name": "Layton",
        "lat": 41.06022,
        "lon": -111.97105,
        "timezone": -6.0
    },
    "brantford": {
        "name": "Brantford",
        "lat": 43.1334,
        "lon": -80.26636,
        "timezone": -4.0
    },
    "yucaipa": {
        "name": "Yucaipa",
        "lat": 34.03362,
        "lon": -117.04309,
        "timezone": -7.0
    },
    "lower hutt": {
        "name": "Lower Hutt",
        "lat": -41.21667,
        "lon": 174.91667,
        "timezone": 13.0
    },
    "sutton coldfield": {
        "name": "Sutton Coldfield",
        "lat": 52.56667,
        "lon": -1.81667,
        "timezone": 1.0
    },
    "sanford": {
        "name": "Sanford",
        "lat": 28.80055,
        "lon": -81.27312,
        "timezone": -4.0
    },
    "pasuruan": {
        "name": "Pasuruan",
        "lat": -7.6453,
        "lon": 112.9075,
        "timezone": 7.0
    },
    "nowshera cantonment": {
        "name": "Nowshera Cantonment",
        "lat": 33.99829,
        "lon": 71.99834,
        "timezone": 5.0
    },
    "balti": {
        "name": "Balti",
        "lat": 47.76167,
        "lon": 27.92889,
        "timezone": 2.0
    },
    "sangrur": {
        "name": "Sangrur",
        "lat": 30.24608,
        "lon": 75.84686,
        "timezone": 5.5
    },
    "patna": {
        "name": "Patna",
        "lat": 25.60222,
        "lon": 85.11936,
        "timezone": 5.5
    },
    "divo": {
        "name": "Divo",
        "lat": 5.83739,
        "lon": -5.35723,
        "timezone": 0.0
    },
    "quillota": {
        "name": "Quillota",
        "lat": -32.8834,
        "lon": -71.24882,
        "timezone": -4.0
    },
    "erode": {
        "name": "Erode",
        "lat": 11.3428,
        "lon": 77.72741,
        "timezone": 5.5
    },
    "swabi": {
        "name": "Swabi",
        "lat": 34.11988,
        "lon": 72.46987,
        "timezone": 5.0
    },
    "south shields": {
        "name": "South Shields",
        "lat": 54.99859,
        "lon": -1.4323,
        "timezone": 1.0
    },
    "mirpur khas": {
        "name": "Mirpur Khas",
        "lat": 25.5251,
        "lon": 69.0159,
        "timezone": 5.0
    },
    "yicheng": {
        "name": "Yicheng",
        "lat": 31.36059,
        "lon": 119.82016,
        "timezone": 8.0
    },
    "pervomays'k": {
        "name": "Pervomays'k",
        "lat": 48.04433,
        "lon": 30.85073,
        "timezone": 2.0
    },
    "calarca": {
        "name": "Calarca",
        "lat": 4.52949,
        "lon": -75.64091,
        "timezone": -5.0
    },
    "como": {
        "name": "Como",
        "lat": 45.80998,
        "lon": 9.08744,
        "timezone": 1.0
    },
    "kuri": {
        "name": "Kuri",
        "lat": 37.5986,
        "lon": 127.1394,
        "timezone": 9.0
    },
    "xiashi": {
        "name": "Xiashi",
        "lat": 30.53629,
        "lon": 120.68638,
        "timezone": 8.0
    },
    "kure": {
        "name": "Kure",
        "lat": 34.23333,
        "lon": 132.56667,
        "timezone": 9.0
    },
    "amreli": {
        "name": "Amreli",
        "lat": 21.60554,
        "lon": 71.22054,
        "timezone": 5.5
    },
    "podgorica": {
        "name": "Podgorica",
        "lat": 42.44111,
        "lon": 19.26361,
        "timezone": 1.0
    },
    "ramat gan": {
        "name": "Ramat Gan",
        "lat": 32.0812,
        "lon": 34.81934,
        "timezone": 2.0
    },
    "presidente franco": {
        "name": "Presidente Franco",
        "lat": -25.53333,
        "lon": -54.61667,
        "timezone": -3.0
    },
    "zonguldak": {
        "name": "Zonguldak",
        "lat": 41.45139,
        "lon": 31.79305,
        "timezone": 2.0
    },
    "malanje": {
        "name": "Malanje",
        "lat": -9.54015,
        "lon": 16.34096,
        "timezone": 1.0
    },
    "pallavaram": {
        "name": "Pallavaram",
        "lat": 12.97611,
        "lon": 80.18361,
        "timezone": 5.5
    },
    "yavatmal": {
        "name": "Yavatmal",
        "lat": 20.4,
        "lon": 78.13333,
        "timezone": 5.5
    },
    "laiwu": {
        "name": "Laiwu",
        "lat": 36.19278,
        "lon": 117.65694,
        "timezone": 8.0
    },
    "bacolod city": {
        "name": "Bacolod City",
        "lat": 10.66667,
        "lon": 122.95,
        "timezone": 8.0
    },
    "denov": {
        "name": "Denov",
        "lat": 38.26667,
        "lon": 67.9,
        "timezone": 5.0
    },
    "motril": {
        "name": "Motril",
        "lat": 36.75066,
        "lon": -3.5179,
        "timezone": 1.0
    },
    "koronadal": {
        "name": "Koronadal",
        "lat": 6.50306,
        "lon": 124.84694,
        "timezone": 8.0
    },
    "hendala": {
        "name": "Hendala",
        "lat": 6.9909,
        "lon": 79.883,
        "timezone": 5.5
    },
    "qinhuangdao": {
        "name": "Qinhuangdao",
        "lat": 39.93167,
        "lon": 119.58833,
        "timezone": 8.0
    },
    "wanparti": {
        "name": "Wanparti",
        "lat": 16.36667,
        "lon": 78.06667,
        "timezone": 5.5
    },
    "vyborg": {
        "name": "Vyborg",
        "lat": 60.70763,
        "lon": 28.75283,
        "timezone": 2.0
    },
    "antioch": {
        "name": "Antioch",
        "lat": 38.00492,
        "lon": -121.80579,
        "timezone": -7.0
    },
    "salamiyah": {
        "name": "Salamiyah",
        "lat": 35.01127,
        "lon": 37.05324,
        "timezone": 2.0
    },
    "yakutsk": {
        "name": "Yakutsk",
        "lat": 62.03389,
        "lon": 129.73306,
        "timezone": 8.0
    },
    "limassol": {
        "name": "Limassol",
        "lat": 34.675,
        "lon": 33.03333,
        "timezone": 2.0
    },
    "sambrial": {
        "name": "Sambrial",
        "lat": 32.47455,
        "lon": 74.35209,
        "timezone": 5.0
    },
    "pemalang": {
        "name": "Pemalang",
        "lat": -6.9,
        "lon": 109.36667,
        "timezone": 7.0
    },
    "fort beaufort": {
        "name": "Fort Beaufort",
        "lat": -32.77477,
        "lon": 26.63376,
        "timezone": 2.0
    },
    "al qatif": {
        "name": "Al Qatif",
        "lat": 26.5208,
        "lon": 50.02452,
        "timezone": 3.0
    },
    "brakpan": {
        "name": "Brakpan",
        "lat": -26.23656,
        "lon": 28.36938,
        "timezone": 2.0
    },
    "manfalut": {
        "name": "Manfalut",
        "lat": 27.3104,
        "lon": 30.97004,
        "timezone": 2.0
    },
    "tumaco": {
        "name": "Tumaco",
        "lat": 1.79861,
        "lon": -78.81556,
        "timezone": -5.0
    },
    "kilosa": {
        "name": "Kilosa",
        "lat": -6.83333,
        "lon": 36.98333,
        "timezone": 3.0
    },
    "pindiga": {
        "name": "Pindiga",
        "lat": 9.98333,
        "lon": 10.93333,
        "timezone": 1.0
    },
    "soja": {
        "name": "Soja",
        "lat": 34.66667,
        "lon": 133.75,
        "timezone": 9.0
    },
    "dunstable": {
        "name": "Dunstable",
        "lat": 51.886,
        "lon": -0.52099,
        "timezone": 1.0
    },
    "fukuoka-shi": {
        "name": "Fukuoka-shi",
        "lat": 33.60639,
        "lon": 130.41806,
        "timezone": 9.0
    },
    "plzen": {
        "name": "Plzen",
        "lat": 49.74747,
        "lon": 13.37759,
        "timezone": 1.0
    },
    "guyong": {
        "name": "Guyong",
        "lat": 14.83989,
        "lon": 120.97996,
        "timezone": 8.0
    },
    "levallois-perret": {
        "name": "Levallois-Perret",
        "lat": 48.89389,
        "lon": 2.28864,
        "timezone": 1.0
    },
    "wenling": {
        "name": "Wenling",
        "lat": 28.37161,
        "lon": 121.36974,
        "timezone": 8.0
    },
    "weston": {
        "name": "Weston",
        "lat": 26.10037,
        "lon": -80.39977,
        "timezone": -4.0
    },
    "iquitos": {
        "name": "Iquitos",
        "lat": -3.74912,
        "lon": -73.25383,
        "timezone": -5.0
    },
    "geelong": {
        "name": "Geelong",
        "lat": -38.14711,
        "lon": 144.36069,
        "timezone": 10.0
    },
    "mococa": {
        "name": "Mococa",
        "lat": -21.46778,
        "lon": -47.00472,
        "timezone": -3.0
    },
    "qo`qon": {
        "name": "Qo`qon",
        "lat": 40.52861,
        "lon": 70.9425,
        "timezone": 5.0
    },
    "katsina": {
        "name": "Katsina",
        "lat": 12.98943,
        "lon": 7.60063,
        "timezone": 1.0
    },
    "gebze": {
        "name": "Gebze",
        "lat": 40.80276,
        "lon": 29.43068,
        "timezone": 2.0
    },
    "sacramento": {
        "name": "Sacramento",
        "lat": 38.58157,
        "lon": -121.4944,
        "timezone": -7.0
    },
    "bokaro": {
        "name": "Bokaro",
        "lat": 23.78732,
        "lon": 85.95622,
        "timezone": 5.5
    },
    "erechim": {
        "name": "Erechim",
        "lat": -27.63417,
        "lon": -52.27389,
        "timezone": -3.0
    },
    "ipojuca": {
        "name": "Ipojuca",
        "lat": -8.39889,
        "lon": -35.06389,
        "timezone": -3.0
    },
    "mallawi": {
        "name": "Mallawi",
        "lat": 27.7314,
        "lon": 30.84165,
        "timezone": 2.0
    },
    "suriapet": {
        "name": "Suriapet",
        "lat": 17.15,
        "lon": 79.61667,
        "timezone": 5.5
    },